{
  "UpdateTime": "2023-08-30T00:22:26+08:00",
  "UpdateInterval": 21600,
  "SrcUpdateTime": "2023-08-30T00:01:32+08:00",
  "SrcUpdateInterval": 86400,
  "AuthorityCode": "TXG",
  "CCTVs": [
    {
      "CCTVID": "C000001",
      "LinkID": "6078920100010B",
      "VideoStreamURL": "https://e-traffic.taichung.gov.tw/ATIS_TCC/Device/Showcctv?id=C000001",
      "LocationType": 1,
      "PositionLon": 120.6555749,
      "PositionLat": 24.1996255,
      "RoadID": "607892B",
      "RoadName": "環中路二段",
      "RoadClass": 6,
      "RoadDirection": "NE"
    },
    {
      "CCTVID": "C000002",
      "LinkID": "6046910700020B",
      "VideoStreamURL": "https://e-traffic.taichung.gov.tw/ATIS_TCC/Device/Showcctv?id=C000002",
      "LocationType": 1,
      "PositionLon": 120.659754,
      "PositionLat": 24.193044,
      "RoadID": "604691B",
      "RoadName": "中清路二段",
      "RoadClass": 6,
      "RoadDirection": "NW"
    },
    {
      "CCTVID": "C000003",
      "LinkID": "6046910300030B",
      "VideoStreamURL": "https://e-traffic.taichung.gov.tw/ATIS_TCC/Device/Showcctv?id=C000003",
      "LocationType": 1,
      "PositionLon": 120.657409,
      "PositionLat": 24.196646,
      "RoadID": "604691B",
      "RoadName": "中清路二段",
      "RoadClass": 6,
      "RoadDirection": "SE"
    },
    {
      "CCTVID": "C000004",
      "LinkID": "6046920000080B",
      "VideoStreamURL": "https://e-traffic.taichung.gov.tw/ATIS_TCC/Device/Showcctv?id=C000004",
      "LocationType": 1,
      "PositionLon": 120.6551819,
      "PositionLat": 24.2004791,
      "RoadID": "604692B",
      "RoadName": "中清路三段",
      "RoadClass": 6,
      "RoadDirection": "N"
    },
    {
      "CCTVID": "C000005",
      "LinkID": "6076270700020B",
      "VideoStreamURL": "https://e-traffic.taichung.gov.tw/ATIS_TCC/Device/Showcctv?id=C000005",
      "LocationType": 1,
      "PositionLon": 120.636459,
      "PositionLat": 24.171274,
      "RoadID": "607627B",
      "RoadName": "臺灣大道三段",
      "RoadClass": 6,
      "RoadDirection": "NW"
    },
    {
      "CCTVID": "C000006",
      "LinkID": "6076270300010B",
      "VideoStreamURL": "https://e-traffic.taichung.gov.tw/ATIS_TCC/Device/Showcctv?id=C000006",
      "LocationType": 1,
      "PositionLon": 120.638846,
      "PositionLat": 24.16926,
      "RoadID": "607627B",
      "RoadName": "臺灣大道三段",
      "RoadClass": 6,
      "RoadDirection": "SE"
    },
    {
      "CCTVID": "C000007",
      "LinkID": "6076270700040B",
      "VideoStreamURL": "https://e-traffic.taichung.gov.tw/ATIS_TCC/Device/Showcctv?id=C000007",
      "LocationType": 1,
      "PositionLon": 120.639276,
      "PositionLat": 24.169206,
      "RoadID": "607627B",
      "RoadName": "臺灣大道三段",
      "RoadClass": 6,
      "RoadDirection": "NW"
    },
    {
      "CCTVID": "C000008",
      "LinkID": "6075140300050B",
      "VideoStreamURL": "https://e-traffic.taichung.gov.tw/ATIS_TCC/Device/Showcctv?id=C000008",
      "LocationType": 1,
      "PositionLon": 120.647832,
      "PositionLat": 24.174301,
      "RoadID": "607514B",
      "RoadName": "福星路",
      "RoadClass": 6,
      "RoadDirection": "SE"
    },
    {
      "CCTVID": "C000009",
      "LinkID": "6070840200060B",
      "VideoStreamURL": "https://e-traffic.taichung.gov.tw/ATIS_TCC/Device/Showcctv?id=C000009",
      "LocationType": 1,
      "PositionLon": 120.636029,
      "PositionLat": 24.169212,
      "RoadID": "607084B",
      "RoadName": "朝馬路",
      "RoadClass": 6,
      "RoadDirection": "E"
    },
    {
      "CCTVID": "C000010",
      "LinkID": "6077350100130B",
      "VideoStreamURL": "https://e-traffic.taichung.gov.tw/ATIS_TCC/Device/Showcctv?id=C000010",
      "LocationType": 1,
      "PositionLon": 120.63748,
      "PositionLat": 24.17896,
      "RoadID": "607735B",
      "RoadName": "黎明路三段",
      "RoadClass": 6,
      "RoadDirection": "NE"
    },
    {
      "CCTVID": "C000011",
      "LinkID": "6047970200070B",
      "VideoStreamURL": "https://e-traffic.taichung.gov.tw/ATIS_TCC/Device/Showcctv?id=C000011",
      "LocationType": 1,
      "PositionLon": 120.623832,
      "PositionLat": 24.149333,
      "RoadID": "604797B",
      "RoadName": "五權西路二段",
      "RoadClass": 6,
      "RoadDirection": "E"
    },
    {
      "CCTVID": "C000012",
      "LinkID": "6076280600100B",
      "VideoStreamURL": "https://e-traffic.taichung.gov.tw/ATIS_TCC/Device/Showcctv?id=C000012",
      "LocationType": 1,
      "PositionLon": 120.624747,
      "PositionLat": 24.178697,
      "RoadID": "607628B",
      "RoadName": "臺灣大道四段",
      "RoadClass": 6,
      "RoadDirection": "W"
    },
    {
      "CCTVID": "C000013",
      "LinkID": "6047970600210B",
      "VideoStreamURL": "https://e-traffic.taichung.gov.tw/ATIS_TCC/Device/Showcctv?id=C000013",
      "LocationType": 1,
      "PositionLon": 120.646602,
      "PositionLat": 24.140044,
      "RoadID": "604797B",
      "RoadName": "五權西路二段",
      "RoadClass": 6,
      "RoadDirection": "W"
    },
    {
      "CCTVID": "C000014",
      "LinkID": "6070890100010B",
      "VideoStreamURL": "https://e-traffic.taichung.gov.tw/ATIS_TCC/Device/Showcctv?id=C000014",
      "LocationType": 1,
      "PositionLon": 120.638292,
      "PositionLat": 24.167587,
      "RoadID": "607089B",
      "RoadName": "朝富路",
      "RoadClass": 6,
      "RoadDirection": "NE"
    },
    {
      "CCTVID": "C000015",
      "LinkID": "6078910200000B",
      "VideoStreamURL": "https://e-traffic.taichung.gov.tw/ATIS_TCC/Device/Showcctv?id=C000015",
      "LocationType": 1,
      "PositionLon": 120.656463,
      "PositionLat": 24.199834,
      "RoadID": "607891B",
      "RoadName": "環中路一段",
      "RoadClass": 6,
      "RoadDirection": "E"
    },
    {
      "CCTVID": "C000016",
      "LinkID": "6076270700090B",
      "VideoStreamURL": "https://e-traffic.taichung.gov.tw/ATIS_TCC/Device/Showcctv?id=C000016",
      "LocationType": 1,
      "PositionLon": 120.649593,
      "PositionLat": 24.162774,
      "RoadID": "607627B",
      "RoadName": "臺灣大道三段",
      "RoadClass": 6,
      "RoadDirection": "NW"
    },
    {
      "CCTVID": "C000017",
      "LinkID": "6076260700010B",
      "VideoStreamURL": "https://e-traffic.taichung.gov.tw/ATIS_TCC/Device/Showcctv?id=C000017",
      "LocationType": 1,
      "PositionLon": 120.653237,
      "PositionLat": 24.160677,
      "RoadID": "607626B",
      "RoadName": "臺灣大道二段",
      "RoadClass": 6,
      "RoadDirection": "NW"
    },
    {
      "CCTVID": "C000018",
      "LinkID": "6076260700130B",
      "VideoStreamURL": "https://e-traffic.taichung.gov.tw/ATIS_TCC/Device/Showcctv?id=C000018",
      "LocationType": 1,
      "PositionLon": 120.666961,
      "PositionLat": 24.153033,
      "RoadID": "607626B",
      "RoadName": "臺灣大道二段",
      "RoadClass": 6,
      "RoadDirection": "NW"
    },
    {
      "CCTVID": "C000019",
      "LinkID": "6056840400070B",
      "VideoStreamURL": "https://e-traffic.taichung.gov.tw/ATIS_TCC/Device/Showcctv?id=C000019",
      "LocationType": 1,
      "PositionLon": 120.6221523,
      "PositionLat": 24.1740045,
      "RoadID": "605684B",
      "RoadName": "安和路",
      "RoadClass": 6,
      "RoadDirection": "S"
    },
    {
      "CCTVID": "C000020",
      "LinkID": "6078930500000B",
      "VideoStreamURL": "https://e-traffic.taichung.gov.tw/ATIS_TCC/Device/Showcctv?id=C000020",
      "LocationType": 1,
      "PositionLon": 120.623048,
      "PositionLat": 24.14999,
      "RoadID": "607893B",
      "RoadName": "環中路三段",
      "RoadClass": 6,
      "RoadDirection": "SW"
    },
    {
      "CCTVID": "C000021",
      "LinkID": "6076270300000B",
      "VideoStreamURL": "https://e-traffic.taichung.gov.tw/ATIS_TCC/Device/Showcctv?id=C000021",
      "LocationType": 1,
      "PositionLon": 120.633788,
      "PositionLat": 24.17308,
      "RoadID": "607627B",
      "RoadName": "臺灣大道三段",
      "RoadClass": 6,
      "RoadDirection": "SE"
    },
    {
      "CCTVID": "C000022",
      "LinkID": "6078930100030B",
      "VideoStreamURL": "https://e-traffic.taichung.gov.tw/ATIS_TCC/Device/Showcctv?id=C000022",
      "LocationType": 1,
      "PositionLon": 120.629102,
      "PositionLat": 24.162812,
      "RoadID": "607893B",
      "RoadName": "環中路三段",
      "RoadClass": 6,
      "RoadDirection": "NE"
    },
    {
      "CCTVID": "C000023",
      "LinkID": "6062590600030B",
      "VideoStreamURL": "https://e-traffic.taichung.gov.tw/ATIS_TCC/Device/Showcctv?id=C000023",
      "LocationType": 1,
      "PositionLon": 120.645578,
      "PositionLat": 24.172488,
      "RoadID": "606259B",
      "RoadName": "河南路二段",
      "RoadClass": 6,
      "RoadDirection": "W"
    },
    {
      "CCTVID": "C000024",
      "LinkID": "6076280600030B",
      "VideoStreamURL": "https://e-traffic.taichung.gov.tw/ATIS_TCC/Device/Showcctv?id=C000024",
      "LocationType": 1,
      "PositionLon": 120.61527,
      "PositionLat": 24.183368,
      "RoadID": "607628B",
      "RoadName": "臺灣大道四段",
      "RoadClass": 6,
      "RoadDirection": "W"
    },
    {
      "CCTVID": "C000025",
      "LinkID": "6076260300040B",
      "VideoStreamURL": "https://e-traffic.taichung.gov.tw/ATIS_TCC/Device/Showcctv?id=C000025",
      "LocationType": 1,
      "PositionLon": 120.659485,
      "PositionLat": 24.157111,
      "RoadID": "607626B",
      "RoadName": "臺灣大道二段",
      "RoadClass": 6,
      "RoadDirection": "SE"
    },
    {
      "CCTVID": "C000026",
      "LinkID": "6076260700140B",
      "VideoStreamURL": "https://e-traffic.taichung.gov.tw/ATIS_TCC/Device/Showcctv?id=C000026",
      "LocationType": 1,
      "PositionLon": 120.669948,
      "PositionLat": 24.151078,
      "RoadID": "607626B",
      "RoadName": "臺灣大道二段",
      "RoadClass": 6,
      "RoadDirection": "NW"
    },
    {
      "CCTVID": "C000027",
      "LinkID": "6048040100170B",
      "VideoStreamURL": "https://e-traffic.taichung.gov.tw/ATIS_TCC/Device/Showcctv?id=C000027",
      "LocationType": 1,
      "PositionLon": 120.66571,
      "PositionLat": 24.14016,
      "RoadID": "604804B",
      "RoadName": "五權路",
      "RoadClass": 6,
      "RoadDirection": "NE"
    },
    {
      "CCTVID": "C000028",
      "LinkID": "6048040500060B",
      "VideoStreamURL": "https://e-traffic.taichung.gov.tw/ATIS_TCC/Device/Showcctv?id=C000028",
      "LocationType": 1,
      "PositionLon": 120.67724,
      "PositionLat": 24.151248,
      "RoadID": "604804B",
      "RoadName": "五權路",
      "RoadClass": 6,
      "RoadDirection": "SW"
    },
    {
      "CCTVID": "C000029",
      "LinkID": "6065430500020B",
      "VideoStreamURL": "https://e-traffic.taichung.gov.tw/ATIS_TCC/Device/Showcctv?id=C000029",
      "LocationType": 1,
      "PositionLon": 120.68229,
      "PositionLat": 24.13576,
      "RoadID": "606543B",
      "RoadName": "建國路",
      "RoadClass": 6,
      "RoadDirection": "SW"
    },
    {
      "CCTVID": "C000030",
      "LinkID": "6048020000050B",
      "VideoStreamURL": "https://e-traffic.taichung.gov.tw/ATIS_TCC/Device/Showcctv?id=C000030",
      "LocationType": 1,
      "PositionLon": 120.67004,
      "PositionLat": 24.11894,
      "RoadID": "604802B",
      "RoadName": "五權南路",
      "RoadClass": 6,
      "RoadDirection": "N"
    },
    {
      "CCTVID": "C000031",
      "LinkID": "6070240500050B",
      "VideoStreamURL": "https://e-traffic.taichung.gov.tw/ATIS_TCC/Device/Showcctv?id=C000031",
      "LocationType": 1,
      "PositionLon": 120.65537,
      "PositionLat": 24.11528,
      "RoadID": "607024B",
      "RoadName": "復興路一段",
      "RoadClass": 6,
      "RoadDirection": "SW"
    },
    {
      "CCTVID": "C000032",
      "LinkID": "6047960200030B",
      "VideoStreamURL": "https://e-traffic.taichung.gov.tw/ATIS_TCC/Device/Showcctv?id=C000032",
      "LocationType": 1,
      "PositionLon": 120.657307,
      "PositionLat": 24.140068,
      "RoadID": "604796B",
      "RoadName": "五權西路一段",
      "RoadClass": 6,
      "RoadDirection": "E"
    },
    {
      "CCTVID": "C000033",
      "LinkID": "6056840000010B",
      "VideoStreamURL": "https://e-traffic.taichung.gov.tw/ATIS_TCC/Device/Showcctv?id=C000033",
      "LocationType": 1,
      "PositionLon": 120.625442,
      "PositionLat": 24.183514,
      "RoadID": "605684B",
      "RoadName": "安和路",
      "RoadClass": 6,
      "RoadDirection": "N"
    },
    {
      "CCTVID": "C000034",
      "LinkID": "6041450700010B",
      "VideoStreamURL": "https://e-traffic.taichung.gov.tw/ATIS_TCC/Device/Showcctv?id=C000034",
      "LocationType": 1,
      "PositionLon": 120.637273,
      "PositionLat": 24.173278,
      "RoadID": "604145B",
      "RoadName": "上安路",
      "RoadClass": 6,
      "RoadDirection": "NW"
    },
    {
      "CCTVID": "C000035",
      "LinkID": "6050560600100B",
      "VideoStreamURL": "https://e-traffic.taichung.gov.tw/ATIS_TCC/Device/Showcctv?id=C000035",
      "LocationType": 1,
      "PositionLon": 120.69781,
      "PositionLat": 24.17042,
      "RoadID": "605056B",
      "RoadName": "文心路四段",
      "RoadClass": 6,
      "RoadDirection": "W"
    },
    {
      "CCTVID": "C000036",
      "LinkID": "6059940700020B",
      "VideoStreamURL": "https://e-traffic.taichung.gov.tw/ATIS_TCC/Device/Showcctv?id=C000036",
      "LocationType": 1,
      "PositionLon": 120.65723,
      "PositionLat": 24.15082,
      "RoadID": "605994B",
      "RoadName": "忠明南路",
      "RoadClass": 6,
      "RoadDirection": "NW"
    },
    {
      "CCTVID": "C000037",
      "LinkID": "6059980400000B",
      "VideoStreamURL": "https://e-traffic.taichung.gov.tw/ATIS_TCC/Device/Showcctv?id=C000037",
      "LocationType": 1,
      "PositionLon": 120.616617,
      "PositionLat": 24.153708,
      "RoadID": "605998B",
      "RoadName": "忠勇路",
      "RoadClass": 6,
      "RoadDirection": "S"
    },
    {
      "CCTVID": "C000038",
      "LinkID": "6067880400030B",
      "VideoStreamURL": "https://e-traffic.taichung.gov.tw/ATIS_TCC/Device/Showcctv?id=C000038",
      "LocationType": 1,
      "PositionLon": 120.618754,
      "PositionLat": 24.113872,
      "RoadID": "606788B",
      "RoadName": "高鐵東路",
      "RoadClass": 6,
      "RoadDirection": "S"
    },
    {
      "CCTVID": "C000039",
      "LinkID": "6078940400040B",
      "VideoStreamURL": "https://e-traffic.taichung.gov.tw/ATIS_TCC/Device/Showcctv?id=C000039",
      "LocationType": 1,
      "PositionLon": 120.6231647,
      "PositionLat": 24.1353501,
      "RoadID": "607894B",
      "RoadName": "環中路四段",
      "RoadClass": 6,
      "RoadDirection": "S"
    },
    {
      "CCTVID": "C000040",
      "LinkID": "6078920500100B",
      "VideoStreamURL": "https://e-traffic.taichung.gov.tw/ATIS_TCC/Device/Showcctv?id=C000040",
      "LocationType": 1,
      "PositionLon": 120.634197,
      "PositionLat": 24.176425,
      "RoadID": "607892B",
      "RoadName": "環中路二段",
      "RoadClass": 6,
      "RoadDirection": "SW"
    },
    {
      "CCTVID": "C000041",
      "LinkID": "6076280600000B",
      "VideoStreamURL": "https://e-traffic.taichung.gov.tw/ATIS_TCC/Device/Showcctv?id=C000041",
      "LocationType": 1,
      "PositionLon": 120.602263,
      "PositionLat": 24.182798,
      "RoadID": "607628B",
      "RoadName": "臺灣大道四段",
      "RoadClass": 6,
      "RoadDirection": "W"
    },
    {
      "CCTVID": "C000042",
      "LinkID": "6071480600050B",
      "VideoStreamURL": "https://e-traffic.taichung.gov.tw/ATIS_TCC/Device/Showcctv?id=C000042",
      "LocationType": 1,
      "PositionLon": 120.684685,
      "PositionLat": 24.163141,
      "RoadID": "607148B",
      "RoadName": "進化北路",
      "RoadClass": 6,
      "RoadDirection": "W"
    },
    {
      "CCTVID": "C000043",
      "LinkID": "6056320600000B",
      "VideoStreamURL": "https://e-traffic.taichung.gov.tw/ATIS_TCC/Device/Showcctv?id=C000043",
      "LocationType": 1,
      "PositionLon": 120.6235109,
      "PositionLat": 24.1451508,
      "RoadID": "605632B",
      "RoadName": "向上路三段",
      "RoadClass": 6,
      "RoadDirection": "W"
    },
    {
      "CCTVID": "C000044",
      "LinkID": "6066060500020B",
      "VideoStreamURL": "https://e-traffic.taichung.gov.tw/ATIS_TCC/Device/Showcctv?id=C000044",
      "LocationType": 1,
      "PositionLon": 120.696857,
      "PositionLat": 24.31298,
      "RoadID": "606606B",
      "RoadName": "眉山路",
      "RoadClass": 6,
      "RoadDirection": "SW"
    },
    {
      "CCTVID": "C000045",
      "LinkID": "6066370100120B",
      "VideoStreamURL": "https://e-traffic.taichung.gov.tw/ATIS_TCC/Device/Showcctv?id=C000045",
      "LocationType": 1,
      "PositionLon": 120.66667,
      "PositionLat": 24.14113,
      "RoadID": "606637B",
      "RoadName": "英才路",
      "RoadClass": 6,
      "RoadDirection": "NE"
    },
    {
      "CCTVID": "C000046",
      "LinkID": "6048040100000B",
      "VideoStreamURL": "https://e-traffic.taichung.gov.tw/ATIS_TCC/Device/Showcctv?id=C000046",
      "LocationType": 1,
      "PositionLon": 120.68593,
      "PositionLat": 24.154469,
      "RoadID": "604804B",
      "RoadName": "五權路",
      "RoadClass": 6,
      "RoadDirection": "NE"
    },
    {
      "CCTVID": "C000047",
      "LinkID": "6071480600000B",
      "VideoStreamURL": "https://e-traffic.taichung.gov.tw/ATIS_TCC/Device/Showcctv?id=C000047",
      "LocationType": 1,
      "PositionLon": 120.674593,
      "PositionLat": 24.162925,
      "RoadID": "607148B",
      "RoadName": "進化北路",
      "RoadClass": 6,
      "RoadDirection": "W"
    },
    {
      "CCTVID": "C000048",
      "LinkID": "6046910300030B",
      "VideoStreamURL": "https://e-traffic.taichung.gov.tw/ATIS_TCC/Device/Showcctv?id=C000048",
      "LocationType": 1,
      "PositionLon": 120.658009,
      "PositionLat": 24.195746,
      "RoadID": "604691B",
      "RoadName": "中清路二段",
      "RoadClass": 6,
      "RoadDirection": "SE"
    },
    {
      "CCTVID": "C000049",
      "LinkID": "6076280600080B",
      "VideoStreamURL": "https://e-traffic.taichung.gov.tw/ATIS_TCC/Device/Showcctv?id=C000049",
      "LocationType": 1,
      "PositionLon": 120.621614,
      "PositionLat": 24.180163,
      "RoadID": "607628B",
      "RoadName": "臺灣大道四段",
      "RoadClass": 6,
      "RoadDirection": "W"
    },
    {
      "CCTVID": "C000050",
      "LinkID": "6048020000060B",
      "VideoStreamURL": "https://e-traffic.taichung.gov.tw/ATIS_TCC/Device/Showcctv?id=C000050",
      "LocationType": 1,
      "PositionLon": 120.67015,
      "PositionLat": 24.11475,
      "RoadID": "604802B",
      "RoadName": "五權南路",
      "RoadClass": 6,
      "RoadDirection": "N"
    },
    {
      "CCTVID": "C000051",
      "LinkID": "6050560600080B",
      "VideoStreamURL": "https://e-traffic.taichung.gov.tw/ATIS_TCC/Device/Showcctv?id=C000051",
      "LocationType": 1,
      "PositionLon": 120.690971,
      "PositionLat": 24.171535,
      "RoadID": "605056B",
      "RoadName": "文心路四段",
      "RoadClass": 6,
      "RoadDirection": "W"
    },
    {
      "CCTVID": "C000052",
      "LinkID": "6050550500030B",
      "VideoStreamURL": "https://e-traffic.taichung.gov.tw/ATIS_TCC/Device/Showcctv?id=C000052",
      "LocationType": 1,
      "PositionLon": 120.6519,
      "PositionLat": 24.165937,
      "RoadID": "605055B",
      "RoadName": "文心路三段",
      "RoadClass": 6,
      "RoadDirection": "SW"
    },
    {
      "CCTVID": "C000054",
      "LinkID": "6052280000010B",
      "VideoStreamURL": "https://e-traffic.taichung.gov.tw/ATIS_TCC/Device/Showcctv?id=C000054",
      "LocationType": 1,
      "PositionLon": 120.68292,
      "PositionLat": 24.13444,
      "RoadID": "605228B",
      "RoadName": "台中路",
      "RoadClass": 6,
      "RoadDirection": "N"
    },
    {
      "CCTVID": "C000055",
      "LinkID": "6059940300300B",
      "VideoStreamURL": "https://e-traffic.taichung.gov.tw/ATIS_TCC/Device/Showcctv?id=C000055",
      "LocationType": 1,
      "PositionLon": 120.67927,
      "PositionLat": 24.11901,
      "RoadID": "605994B",
      "RoadName": "忠明南路",
      "RoadClass": 6,
      "RoadDirection": "SE"
    },
    {
      "CCTVID": "C000056",
      "LinkID": "6059940700160B",
      "VideoStreamURL": "https://e-traffic.taichung.gov.tw/ATIS_TCC/Device/Showcctv?id=C000056",
      "LocationType": 1,
      "PositionLon": 120.661536,
      "PositionLat": 24.121945,
      "RoadID": "605994B",
      "RoadName": "忠明南路",
      "RoadClass": 6,
      "RoadDirection": "NW"
    },
    {
      "CCTVID": "C000057",
      "LinkID": "6057810600000B",
      "VideoStreamURL": "https://e-traffic.taichung.gov.tw/ATIS_TCC/Device/Showcctv?id=C000057",
      "LocationType": 1,
      "PositionLon": 120.606532,
      "PositionLat": 24.192778,
      "RoadID": "605781B",
      "RoadName": "西屯路三段",
      "RoadClass": 6,
      "RoadDirection": "W"
    },
    {
      "CCTVID": "C000058",
      "LinkID": "6068610400120B",
      "VideoStreamURL": "https://e-traffic.taichung.gov.tw/ATIS_TCC/Device/Showcctv?id=C000058",
      "LocationType": 1,
      "PositionLon": 120.686128,
      "PositionLat": 24.181614,
      "RoadID": "606861B",
      "RoadName": "崇德路三段",
      "RoadClass": 6,
      "RoadDirection": "S"
    },
    {
      "CCTVID": "C000059",
      "LinkID": "6076260700100B",
      "VideoStreamURL": "https://e-traffic.taichung.gov.tw/ATIS_TCC/Device/Showcctv?id=C000059",
      "LocationType": 1,
      "PositionLon": 120.66408,
      "PositionLat": 24.15474,
      "RoadID": "607626B",
      "RoadName": "臺灣大道二段",
      "RoadClass": 6,
      "RoadDirection": "NW"
    },
    {
      "CCTVID": "C000060",
      "LinkID": "6076270300020B",
      "VideoStreamURL": "https://e-traffic.taichung.gov.tw/ATIS_TCC/Device/Showcctv?id=C000060",
      "LocationType": 1,
      "PositionLon": 120.636341,
      "PositionLat": 24.170777,
      "RoadID": "607627B",
      "RoadName": "臺灣大道三段",
      "RoadClass": 6,
      "RoadDirection": "SE"
    },
    {
      "CCTVID": "C000061",
      "LinkID": "6073000000020B",
      "VideoStreamURL": "https://e-traffic.taichung.gov.tw/ATIS_TCC/Device/Showcctv?id=C000061",
      "LocationType": 1,
      "PositionLon": 120.619904,
      "PositionLat": 24.122673,
      "RoadID": "607300B",
      "RoadName": "新鎮和路",
      "RoadClass": 6,
      "RoadDirection": "N"
    },
    {
      "CCTVID": "C000062",
      "LinkID": "6078910200100B",
      "VideoStreamURL": "https://e-traffic.taichung.gov.tw/ATIS_TCC/Device/Showcctv?id=C000062",
      "LocationType": 1,
      "PositionLon": 120.686392,
      "PositionLat": 24.200858,
      "RoadID": "607891B",
      "RoadName": "環中路一段",
      "RoadClass": 6,
      "RoadDirection": "E"
    },
    {
      "CCTVID": "C000064",
      "LinkID": "6045750200180B",
      "VideoStreamURL": "https://e-traffic.taichung.gov.tw/ATIS_TCC/Device/Showcctv?id=C000064",
      "LocationType": 1,
      "PositionLon": 120.696282,
      "PositionLat": 24.248423,
      "RoadID": "604575B",
      "RoadName": "中山路",
      "RoadClass": 6,
      "RoadDirection": "E"
    },
    {
      "CCTVID": "C000065",
      "LinkID": "6046240600000B",
      "VideoStreamURL": "https://e-traffic.taichung.gov.tw/ATIS_TCC/Device/Showcctv?id=C000065",
      "LocationType": 1,
      "PositionLon": 120.699193,
      "PositionLat": 24.249011,
      "RoadID": "604624B",
      "RoadName": "中正路",
      "RoadClass": 6,
      "RoadDirection": "W"
    },
    {
      "CCTVID": "C000066",
      "LinkID": "6079580700000B",
      "VideoStreamURL": "https://e-traffic.taichung.gov.tw/ATIS_TCC/Device/Showcctv?id=C000066",
      "LocationType": 1,
      "PositionLon": 120.703284,
      "PositionLat": 24.249467,
      "RoadID": "607958B",
      "RoadName": "豐原大道一段",
      "RoadClass": 6,
      "RoadDirection": "NW"
    },
    {
      "CCTVID": "C000067",
      "LinkID": "6078930100000B",
      "VideoStreamURL": "https://e-traffic.taichung.gov.tw/ATIS_TCC/Device/Showcctv?id=C000067",
      "LocationType": 1,
      "PositionLon": 120.623456,
      "PositionLat": 24.149662,
      "RoadID": "607893B",
      "RoadName": "環中路三段",
      "RoadClass": 6,
      "RoadDirection": "NE"
    },
    {
      "CCTVID": "C000069",
      "LinkID": "6067370000000B",
      "VideoStreamURL": "https://e-traffic.taichung.gov.tw/ATIS_TCC/Device/Showcctv?id=C000069",
      "LocationType": 1,
      "PositionLon": 120.628605,
      "PositionLat": 24.147825,
      "RoadID": "606737B",
      "RoadName": "益豐路四段",
      "RoadClass": 6,
      "RoadDirection": "N"
    },
    {
      "CCTVID": "C000070",
      "LinkID": "6047970600190B",
      "VideoStreamURL": "https://e-traffic.taichung.gov.tw/ATIS_TCC/Device/Showcctv?id=C000070",
      "LocationType": 1,
      "PositionLon": 120.64214,
      "PositionLat": 24.140996,
      "RoadID": "604797B",
      "RoadName": "五權西路二段",
      "RoadClass": 6,
      "RoadDirection": "W"
    },
    {
      "CCTVID": "C000071",
      "LinkID": "6068610000070B",
      "VideoStreamURL": "https://e-traffic.taichung.gov.tw/ATIS_TCC/Device/Showcctv?id=C000071",
      "LocationType": 1,
      "PositionLon": 120.686497,
      "PositionLat": 24.193556,
      "RoadID": "606861B",
      "RoadName": "崇德路三段",
      "RoadClass": 6,
      "RoadDirection": "N"
    },
    {
      "CCTVID": "C000075",
      "LinkID": "6070490000070B",
      "VideoStreamURL": "https://e-traffic.taichung.gov.tw/ATIS_TCC/Device/Showcctv?id=C000075",
      "LocationType": 1,
      "PositionLon": 120.64397,
      "PositionLat": 24.14683,
      "RoadID": "607049B",
      "RoadName": "惠文路",
      "RoadClass": 6,
      "RoadDirection": "N"
    },
    {
      "CCTVID": "C000076",
      "LinkID": "6050530400050B",
      "VideoStreamURL": "https://e-traffic.taichung.gov.tw/ATIS_TCC/Device/Showcctv?id=C000076",
      "LocationType": 1,
      "PositionLon": 120.64681,
      "PositionLat": 24.14496,
      "RoadID": "605053B",
      "RoadName": "文心路一段",
      "RoadClass": 6,
      "RoadDirection": "S"
    },
    {
      "CCTVID": "C000078",
      "LinkID": "6062600500010B",
      "VideoStreamURL": "https://e-traffic.taichung.gov.tw/ATIS_TCC/Device/Showcctv?id=C000078",
      "LocationType": 1,
      "PositionLon": 120.63633,
      "PositionLat": 24.16041,
      "RoadID": "606260B",
      "RoadName": "河南路三段",
      "RoadClass": 6,
      "RoadDirection": "SW"
    },
    {
      "CCTVID": "C000080",
      "LinkID": "6050550500080B",
      "VideoStreamURL": "https://e-traffic.taichung.gov.tw/ATIS_TCC/Device/Showcctv?id=C000080",
      "LocationType": 1,
      "PositionLon": 120.6614343,
      "PositionLat": 24.1716421,
      "RoadID": "605055B",
      "RoadName": "文心路三段",
      "RoadClass": 6,
      "RoadDirection": "SW"
    },
    {
      "CCTVID": "C000081",
      "LinkID": "6062590200010B",
      "VideoStreamURL": "https://e-traffic.taichung.gov.tw/ATIS_TCC/Device/Showcctv?id=C000081",
      "LocationType": 1,
      "PositionLon": 120.644208,
      "PositionLat": 24.171202,
      "RoadID": "606259B",
      "RoadName": "河南路二段",
      "RoadClass": 6,
      "RoadDirection": "E"
    },
    {
      "CCTVID": "C000082",
      "LinkID": "6048040100110B",
      "VideoStreamURL": "https://e-traffic.taichung.gov.tw/ATIS_TCC/Device/Showcctv?id=C000082",
      "LocationType": 1,
      "PositionLon": 120.673362,
      "PositionLat": 24.147417,
      "RoadID": "604804B",
      "RoadName": "五權路",
      "RoadClass": 6,
      "RoadDirection": "NE"
    },
    {
      "CCTVID": "C000085",
      "LinkID": "6049050200050B",
      "VideoStreamURL": "https://e-traffic.taichung.gov.tw/ATIS_TCC/Device/Showcctv?id=C000085",
      "LocationType": 1,
      "PositionLon": 120.664359,
      "PositionLat": 24.150813,
      "RoadID": "604905B",
      "RoadName": "公益路",
      "RoadClass": 6,
      "RoadDirection": "E"
    },
    {
      "CCTVID": "C000087",
      "LinkID": "6056300600020B",
      "VideoStreamURL": "https://e-traffic.taichung.gov.tw/ATIS_TCC/Device/Showcctv?id=C000087",
      "LocationType": 1,
      "PositionLon": 120.65288,
      "PositionLat": 24.146665,
      "RoadID": "605630B",
      "RoadName": "向上路一段",
      "RoadClass": 6,
      "RoadDirection": "W"
    },
    {
      "CCTVID": "C000088",
      "LinkID": "6051720400060B",
      "VideoStreamURL": "https://e-traffic.taichung.gov.tw/ATIS_TCC/Device/Showcctv?id=C000088",
      "LocationType": 1,
      "PositionLon": 120.694246,
      "PositionLat": 24.165012,
      "RoadID": "605172B",
      "RoadName": "北屯路",
      "RoadClass": 6,
      "RoadDirection": "S"
    },
    {
      "CCTVID": "C000093",
      "LinkID": "6050550100030B",
      "VideoStreamURL": "https://e-traffic.taichung.gov.tw/ATIS_TCC/Device/Showcctv?id=C000093",
      "LocationType": 1,
      "PositionLon": 120.654139,
      "PositionLat": 24.167752,
      "RoadID": "605055B",
      "RoadName": "文心路三段",
      "RoadClass": 6,
      "RoadDirection": "NE"
    },
    {
      "CCTVID": "C000094",
      "LinkID": "6070390500000B",
      "VideoStreamURL": "https://e-traffic.taichung.gov.tw/ATIS_TCC/Device/Showcctv?id=C000094",
      "LocationType": 1,
      "PositionLon": 120.64528,
      "PositionLat": 24.16289,
      "RoadID": "607039B",
      "RoadName": "惠中路一段",
      "RoadClass": 6,
      "RoadDirection": "SW"
    },
    {
      "CCTVID": "C000098",
      "LinkID": "6076270300060B",
      "VideoStreamURL": "https://e-traffic.taichung.gov.tw/ATIS_TCC/Device/Showcctv?id=C000098",
      "LocationType": 1,
      "PositionLon": 120.646098,
      "PositionLat": 24.164407,
      "RoadID": "607627B",
      "RoadName": "臺灣大道三段",
      "RoadClass": 6,
      "RoadDirection": "SE"
    },
    {
      "CCTVID": "C000099",
      "LinkID": "6052650700070B",
      "VideoStreamURL": "https://e-traffic.taichung.gov.tw/ATIS_TCC/Device/Showcctv?id=C000099",
      "LocationType": 1,
      "PositionLon": 120.641806,
      "PositionLat": 24.157549,
      "RoadID": "605265B",
      "RoadName": "市政路",
      "RoadClass": 6,
      "RoadDirection": "NW"
    },
    {
      "CCTVID": "C000101",
      "LinkID": "6075690600030B",
      "VideoStreamURL": "https://e-traffic.taichung.gov.tw/ATIS_TCC/Device/Showcctv?id=C000101",
      "LocationType": 1,
      "PositionLon": 120.686022,
      "PositionLat": 24.146201,
      "RoadID": "607569B",
      "RoadName": "精武路",
      "RoadClass": 6,
      "RoadDirection": "W"
    },
    {
      "CCTVID": "C000103",
      "LinkID": "6078930500050B",
      "VideoStreamURL": "https://e-traffic.taichung.gov.tw/ATIS_TCC/Device/Showcctv?id=C000103",
      "LocationType": 1,
      "PositionLon": 120.63211,
      "PositionLat": 24.17034,
      "RoadID": "607893B",
      "RoadName": "環中路三段",
      "RoadClass": 6,
      "RoadDirection": "SW"
    },
    {
      "CCTVID": "C000104",
      "LinkID": "6056840000060B",
      "VideoStreamURL": "https://e-traffic.taichung.gov.tw/ATIS_TCC/Device/Showcctv?id=C000104",
      "LocationType": 1,
      "PositionLon": 120.62219,
      "PositionLat": 24.17417,
      "RoadID": "605684B",
      "RoadName": "安和路",
      "RoadClass": 6,
      "RoadDirection": "N"
    },
    {
      "CCTVID": "C000105",
      "LinkID": "6079690100020B",
      "VideoStreamURL": "https://e-traffic.taichung.gov.tw/ATIS_TCC/Device/Showcctv?id=C000105",
      "LocationType": 1,
      "PositionLon": 120.7243834,
      "PositionLat": 24.2537139,
      "RoadID": "607969B",
      "RoadName": "豐陽路",
      "RoadClass": 6,
      "RoadDirection": "NE"
    },
    {
      "CCTVID": "C000107",
      "LinkID": "6046240200060B",
      "VideoStreamURL": "https://e-traffic.taichung.gov.tw/ATIS_TCC/Device/Showcctv?id=C000107",
      "LocationType": 1,
      "PositionLon": 120.714386,
      "PositionLat": 24.251097,
      "RoadID": "604624B",
      "RoadName": "中正路",
      "RoadClass": 6,
      "RoadDirection": "E"
    },
    {
      "CCTVID": "C000109",
      "LinkID": "6046240200080B",
      "VideoStreamURL": "https://e-traffic.taichung.gov.tw/ATIS_TCC/Device/Showcctv?id=C000109",
      "LocationType": 1,
      "PositionLon": 120.7207186,
      "PositionLat": 24.2517393,
      "RoadID": "604624B",
      "RoadName": "中正路",
      "RoadClass": 6,
      "RoadDirection": "E"
    },
    {
      "CCTVID": "C000112",
      "LinkID": "6060400600000B",
      "VideoStreamURL": "https://e-traffic.taichung.gov.tw/ATIS_TCC/Device/Showcctv?id=C000112",
      "LocationType": 1,
      "PositionLon": 120.709785,
      "PositionLat": 24.286358,
      "RoadID": "606040B",
      "RoadName": "枋寮路",
      "RoadClass": 6,
      "RoadDirection": "W"
    },
    {
      "CCTVID": "C000114",
      "LinkID": "6081260000010B",
      "VideoStreamURL": "https://e-traffic.taichung.gov.tw/ATIS_TCC/Device/Showcctv?id=C000114",
      "LocationType": 1,
      "PositionLon": 120.720555,
      "PositionLat": 24.266175,
      "RoadID": "608126B",
      "RoadName": "三豐路二段",
      "RoadClass": 6,
      "RoadDirection": "N"
    },
    {
      "CCTVID": "C000115",
      "LinkID": "6060630100060B",
      "VideoStreamURL": "https://e-traffic.taichung.gov.tw/ATIS_TCC/Device/Showcctv?id=C000115",
      "LocationType": 1,
      "PositionLon": 120.755044,
      "PositionLat": 24.199729,
      "RoadID": "606063B",
      "RoadName": "東山路二段",
      "RoadClass": 6,
      "RoadDirection": "NE"
    },
    {
      "CCTVID": "C000116",
      "LinkID": "6060630100080B",
      "VideoStreamURL": "https://e-traffic.taichung.gov.tw/ATIS_TCC/Device/Showcctv?id=C000116",
      "LocationType": 1,
      "PositionLon": 120.776236,
      "PositionLat": 24.198699,
      "RoadID": "606063B",
      "RoadName": "東山路二段",
      "RoadClass": 6,
      "RoadDirection": "NE"
    },
    {
      "CCTVID": "C000120",
      "LinkID": "6076270700000B",
      "VideoStreamURL": "https://e-traffic.taichung.gov.tw/ATIS_TCC/Device/Showcctv?id=C000120",
      "LocationType": 1,
      "PositionLon": 120.634205,
      "PositionLat": 24.172826,
      "RoadID": "607627B",
      "RoadName": "臺灣大道三段",
      "RoadClass": 6,
      "RoadDirection": "NW"
    },
    {
      "CCTVID": "C000121",
      "LinkID": "6076270700050B",
      "VideoStreamURL": "https://e-traffic.taichung.gov.tw/ATIS_TCC/Device/Showcctv?id=C000121",
      "LocationType": 1,
      "PositionLon": 120.640534,
      "PositionLat": 24.168098,
      "RoadID": "607627B",
      "RoadName": "臺灣大道三段",
      "RoadClass": 6,
      "RoadDirection": "NW"
    },
    {
      "CCTVID": "C000122",
      "LinkID": "6078920500000B",
      "VideoStreamURL": "https://e-traffic.taichung.gov.tw/ATIS_TCC/Device/Showcctv?id=C000122",
      "LocationType": 1,
      "PositionLon": 120.65262,
      "PositionLat": 24.19874,
      "RoadID": "607892B",
      "RoadName": "環中路二段",
      "RoadClass": 6,
      "RoadDirection": "SW"
    },
    {
      "CCTVID": "C000128",
      "LinkID": "6081270000070B",
      "VideoStreamURL": "https://e-traffic.taichung.gov.tw/ATIS_TCC/Device/Showcctv?id=C000128",
      "LocationType": 1,
      "PositionLon": 120.72239,
      "PositionLat": 24.278178,
      "RoadID": "608127B",
      "RoadName": "三豐路三段",
      "RoadClass": 6,
      "RoadDirection": "N"
    },
    {
      "CCTVID": "C000129",
      "LinkID": "6056660200060B",
      "VideoStreamURL": "https://e-traffic.taichung.gov.tw/ATIS_TCC/Device/Showcctv?id=C000129",
      "LocationType": 1,
      "PositionLon": 120.732138,
      "PositionLat": 24.29851,
      "RoadID": "605666B",
      "RoadName": "后科路二段",
      "RoadClass": 6,
      "RoadDirection": "E"
    },
    {
      "CCTVID": "C000131",
      "LinkID": "6079720500030B",
      "VideoStreamURL": "https://e-traffic.taichung.gov.tw/ATIS_TCC/Device/Showcctv?id=C000131",
      "LocationType": 1,
      "PositionLon": 120.724444,
      "PositionLat": 24.253906,
      "RoadID": "607972B",
      "RoadName": "豐勢路一段",
      "RoadClass": 6,
      "RoadDirection": "SW"
    },
    {
      "CCTVID": "C000134",
      "LinkID": "6078920100070B",
      "VideoStreamURL": "https://e-traffic.taichung.gov.tw/ATIS_TCC/Device/Showcctv?id=C000134",
      "LocationType": 1,
      "PositionLon": 120.647528,
      "PositionLat": 24.195933,
      "RoadID": "607892B",
      "RoadName": "環中路二段",
      "RoadClass": 6,
      "RoadDirection": "NE"
    },
    {
      "CCTVID": "C000135",
      "LinkID": "6078920500030B",
      "VideoStreamURL": "https://e-traffic.taichung.gov.tw/ATIS_TCC/Device/Showcctv?id=C000135",
      "LocationType": 1,
      "PositionLon": 120.64751,
      "PositionLat": 24.196545,
      "RoadID": "607892B",
      "RoadName": "環中路二段",
      "RoadClass": 6,
      "RoadDirection": "SW"
    },
    {
      "CCTVID": "C000136",
      "LinkID": "6078910600010B",
      "VideoStreamURL": "https://e-traffic.taichung.gov.tw/ATIS_TCC/Device/Showcctv?id=C000136",
      "LocationType": 1,
      "PositionLon": 120.657075,
      "PositionLat": 24.20052,
      "RoadID": "607891B",
      "RoadName": "環中路一段",
      "RoadClass": 6,
      "RoadDirection": "W"
    },
    {
      "CCTVID": "C000137",
      "LinkID": "6078910200030B",
      "VideoStreamURL": "https://e-traffic.taichung.gov.tw/ATIS_TCC/Device/Showcctv?id=C000137",
      "LocationType": 1,
      "PositionLon": 120.665426,
      "PositionLat": 24.200849,
      "RoadID": "607891B",
      "RoadName": "環中路一段",
      "RoadClass": 6,
      "RoadDirection": "E"
    },
    {
      "CCTVID": "C000138",
      "LinkID": "6078910600020B",
      "VideoStreamURL": "https://e-traffic.taichung.gov.tw/ATIS_TCC/Device/Showcctv?id=C000138",
      "LocationType": 1,
      "PositionLon": 120.665223,
      "PositionLat": 24.201335,
      "RoadID": "607891B",
      "RoadName": "環中路一段",
      "RoadClass": 6,
      "RoadDirection": "W"
    },
    {
      "CCTVID": "C000139",
      "LinkID": "6078910200050B",
      "VideoStreamURL": "https://e-traffic.taichung.gov.tw/ATIS_TCC/Device/Showcctv?id=C000139",
      "LocationType": 1,
      "PositionLon": 120.671118,
      "PositionLat": 24.200846,
      "RoadID": "607891B",
      "RoadName": "環中路一段",
      "RoadClass": 6,
      "RoadDirection": "E"
    },
    {
      "CCTVID": "C000140",
      "LinkID": "6078910600050B",
      "VideoStreamURL": "https://e-traffic.taichung.gov.tw/ATIS_TCC/Device/Showcctv?id=C000140",
      "LocationType": 1,
      "PositionLon": 120.671008,
      "PositionLat": 24.201139,
      "RoadID": "607891B",
      "RoadName": "環中路一段",
      "RoadClass": 6,
      "RoadDirection": "W"
    },
    {
      "CCTVID": "C000141",
      "LinkID": "6046920000080B",
      "VideoStreamURL": "https://e-traffic.taichung.gov.tw/ATIS_TCC/Device/Showcctv?id=C000141",
      "LocationType": 1,
      "PositionLon": 120.652068,
      "PositionLat": 24.206501,
      "RoadID": "604692B",
      "RoadName": "中清路三段",
      "RoadClass": 6,
      "RoadDirection": "N"
    },
    {
      "CCTVID": "C000142",
      "LinkID": "6046910300070B",
      "VideoStreamURL": "https://e-traffic.taichung.gov.tw/ATIS_TCC/Device/Showcctv?id=C000142",
      "LocationType": 1,
      "PositionLon": 120.661171,
      "PositionLat": 24.19066,
      "RoadID": "604691B",
      "RoadName": "中清路二段",
      "RoadClass": 6,
      "RoadDirection": "SE"
    },
    {
      "CCTVID": "C000143",
      "LinkID": "6073650600010B",
      "VideoStreamURL": "https://e-traffic.taichung.gov.tw/ATIS_TCC/Device/Showcctv?id=C000143",
      "LocationType": 1,
      "PositionLon": 120.658182,
      "PositionLat": 24.192722,
      "RoadID": "607365B",
      "RoadName": "經貿七路",
      "RoadClass": 6,
      "RoadDirection": "W"
    },
    {
      "CCTVID": "C000144",
      "LinkID": "6046680300220B",
      "VideoStreamURL": "https://e-traffic.taichung.gov.tw/ATIS_TCC/Device/Showcctv?id=C000144",
      "LocationType": 1,
      "PositionLon": 120.6549269,
      "PositionLat": 24.1761678,
      "RoadID": "604668B",
      "RoadName": "中科路",
      "RoadClass": 6,
      "RoadDirection": "SE"
    },
    {
      "CCTVID": "C000145",
      "LinkID": "6063720400030B",
      "VideoStreamURL": "https://e-traffic.taichung.gov.tw/ATIS_TCC/Device/Showcctv?id=C000145",
      "LocationType": 1,
      "PositionLon": 120.659564,
      "PositionLat": 24.206789,
      "RoadID": "606372B",
      "RoadName": "信和路",
      "RoadClass": 6,
      "RoadDirection": "S"
    },
    {
      "CCTVID": "C000146",
      "LinkID": "6078920100050B",
      "VideoStreamURL": "https://e-traffic.taichung.gov.tw/ATIS_TCC/Device/Showcctv?id=C000146",
      "LocationType": 1,
      "PositionLon": 120.6498274,
      "PositionLat": 24.1969338,
      "RoadID": "607892B",
      "RoadName": "環中路二段",
      "RoadClass": 6,
      "RoadDirection": "NE"
    },
    {
      "CCTVID": "C000147",
      "LinkID": "6050550100070B",
      "VideoStreamURL": "https://e-traffic.taichung.gov.tw/ATIS_TCC/Device/Showcctv?id=C000147",
      "LocationType": 1,
      "PositionLon": 120.6611976,
      "PositionLat": 24.1717158,
      "RoadID": "605055B",
      "RoadName": "文心路三段",
      "RoadClass": 6,
      "RoadDirection": "NE"
    },
    {
      "CCTVID": "C000148",
      "LinkID": "6073700700010B",
      "VideoStreamURL": "https://e-traffic.taichung.gov.tw/ATIS_TCC/Device/Showcctv?id=C000148",
      "LocationType": 1,
      "PositionLon": 120.654971,
      "PositionLat": 24.19593,
      "RoadID": "607370B",
      "RoadName": "經貿路二段",
      "RoadClass": 6,
      "RoadDirection": "NW"
    },
    {
      "CCTVID": "C000149",
      "LinkID": "6069610400000B",
      "VideoStreamURL": "https://e-traffic.taichung.gov.tw/ATIS_TCC/Device/Showcctv?id=C000149",
      "LocationType": 1,
      "PositionLon": 120.64792,
      "PositionLat": 24.195729,
      "RoadID": "606961B",
      "RoadName": "凱旋路",
      "RoadClass": 6,
      "RoadDirection": "S"
    },
    {
      "CCTVID": "C000150",
      "LinkID": "6069610400040B",
      "VideoStreamURL": "https://e-traffic.taichung.gov.tw/ATIS_TCC/Device/Showcctv?id=C000150",
      "LocationType": 1,
      "PositionLon": 120.6518661,
      "PositionLat": 24.1853134,
      "RoadID": "606961B",
      "RoadName": "凱旋路",
      "RoadClass": 6,
      "RoadDirection": "S"
    },
    {
      "CCTVID": "C000151",
      "LinkID": "6046100000110B",
      "VideoStreamURL": "https://e-traffic.taichung.gov.tw/ATIS_TCC/Device/Showcctv?id=C000151",
      "LocationType": 1,
      "PositionLon": 120.65898,
      "PositionLat": 24.17636,
      "RoadID": "604610B",
      "RoadName": "中平路",
      "RoadClass": 6,
      "RoadDirection": "N"
    },
    {
      "CCTVID": "C000152",
      "LinkID": "6062590600050B",
      "VideoStreamURL": "https://e-traffic.taichung.gov.tw/ATIS_TCC/Device/Showcctv?id=C000152",
      "LocationType": 1,
      "PositionLon": 120.65183,
      "PositionLat": 24.17614,
      "RoadID": "606259B",
      "RoadName": "河南路二段",
      "RoadClass": 6,
      "RoadDirection": "W"
    },
    {
      "CCTVID": "C000153",
      "LinkID": "6070580200040B",
      "VideoStreamURL": "https://e-traffic.taichung.gov.tw/ATIS_TCC/Device/Showcctv?id=C000153",
      "LocationType": 1,
      "PositionLon": 120.66363,
      "PositionLat": 24.18542,
      "RoadID": "607058B",
      "RoadName": "敦化路二段",
      "RoadClass": 6,
      "RoadDirection": "E"
    },
    {
      "CCTVID": "C000154",
      "LinkID": "6076270300060B",
      "VideoStreamURL": "https://e-traffic.taichung.gov.tw/ATIS_TCC/Device/Showcctv?id=C000154",
      "LocationType": 1,
      "PositionLon": 120.64368,
      "PositionLat": 24.16582,
      "RoadID": "607627B",
      "RoadName": "臺灣大道三段",
      "RoadClass": 6,
      "RoadDirection": "SE"
    },
    {
      "CCTVID": "C000159",
      "LinkID": "6081260000010B",
      "VideoStreamURL": "https://e-traffic.taichung.gov.tw/ATIS_TCC/Device/Showcctv?id=C000159",
      "LocationType": 1,
      "PositionLon": 120.7201817,
      "PositionLat": 24.2642247,
      "RoadID": "608126B",
      "RoadName": "三豐路二段",
      "RoadClass": 6,
      "RoadDirection": "N"
    },
    {
      "CCTVID": "C000165",
      "LinkID": "6046680300210B",
      "VideoStreamURL": "https://e-traffic.taichung.gov.tw/ATIS_TCC/Device/Showcctv?id=C000165",
      "LocationType": 1,
      "PositionLon": 120.6556243,
      "PositionLat": 24.1798229,
      "RoadID": "604668B",
      "RoadName": "中科路",
      "RoadClass": 6,
      "RoadDirection": "SE"
    },
    {
      "CCTVID": "C000168",
      "LinkID": "6076270300060B",
      "VideoStreamURL": "https://e-traffic.taichung.gov.tw/ATIS_TCC/Device/Showcctv?id=C000168",
      "LocationType": 1,
      "PositionLon": 120.6437146,
      "PositionLat": 24.1656548,
      "RoadID": "607627B",
      "RoadName": "臺灣大道三段",
      "RoadClass": 6,
      "RoadDirection": "SE"
    },
    {
      "CCTVID": "C000171",
      "LinkID": "6081040700110B",
      "VideoStreamURL": "https://e-traffic.taichung.gov.tw/ATIS_TCC/Device/Showcctv?id=C000171",
      "LocationType": 1,
      "PositionLon": 120.6817058,
      "PositionLat": 24.3157801,
      "RoadID": "608104B",
      "RoadName": "甲后路三段",
      "RoadClass": 6,
      "RoadDirection": "NW"
    },
    {
      "CCTVID": "C000176",
      "LinkID": "6076270300060B",
      "VideoStreamURL": "https://e-traffic.taichung.gov.tw/ATIS_TCC/Device/Showcctv?id=C000176",
      "LocationType": 1,
      "PositionLon": 120.644036,
      "PositionLat": 24.165339,
      "RoadID": "607627B",
      "RoadName": "臺灣大道三段",
      "RoadClass": 6,
      "RoadDirection": "SE"
    },
    {
      "CCTVID": "C000177",
      "LinkID": "6076270300060B",
      "VideoStreamURL": "https://e-traffic.taichung.gov.tw/ATIS_TCC/Device/Showcctv?id=C000177",
      "LocationType": 1,
      "PositionLon": 120.644257,
      "PositionLat": 24.1652,
      "RoadID": "607627B",
      "RoadName": "臺灣大道三段",
      "RoadClass": 6,
      "RoadDirection": "SE"
    },
    {
      "CCTVID": "C000178",
      "LinkID": "6047970200130B",
      "VideoStreamURL": "https://e-traffic.taichung.gov.tw/ATIS_TCC/Device/Showcctv?id=C000178",
      "LocationType": 1,
      "PositionLon": 120.63226,
      "PositionLat": 24.145601,
      "RoadID": "604797B",
      "RoadName": "五權西路二段",
      "RoadClass": 6,
      "RoadDirection": "E"
    },
    {
      "CCTVID": "C000179",
      "LinkID": "6043130700060B",
      "VideoStreamURL": "https://e-traffic.taichung.gov.tw/ATIS_TCC/Device/Showcctv?id=C000179",
      "LocationType": 1,
      "PositionLon": 120.6564901,
      "PositionLat": 24.1990653,
      "RoadID": "604313B",
      "RoadName": "大雅交流道銜接道路",
      "RoadClass": 6,
      "RoadDirection": "NW"
    },
    {
      "CCTVID": "C000180",
      "LinkID": "6046910700070B",
      "VideoStreamURL": "https://e-traffic.taichung.gov.tw/ATIS_TCC/Device/Showcctv?id=C000180",
      "LocationType": 1,
      "PositionLon": 120.66388,
      "PositionLat": 24.185472,
      "RoadID": "604691B",
      "RoadName": "中清路二段",
      "RoadClass": 6,
      "RoadDirection": "NW"
    },
    {
      "CCTVID": "C000181",
      "LinkID": "6046910300160B",
      "VideoStreamURL": "https://e-traffic.taichung.gov.tw/ATIS_TCC/Device/Showcctv?id=C000181",
      "LocationType": 1,
      "PositionLon": 120.67136,
      "PositionLat": 24.17381,
      "RoadID": "604691B",
      "RoadName": "中清路二段",
      "RoadClass": 6,
      "RoadDirection": "SE"
    },
    {
      "CCTVID": "C000182",
      "LinkID": "6071480200000B",
      "VideoStreamURL": "https://e-traffic.taichung.gov.tw/ATIS_TCC/Device/Showcctv?id=C000182",
      "LocationType": 1,
      "PositionLon": 120.674429,
      "PositionLat": 24.162965,
      "RoadID": "607148B",
      "RoadName": "進化北路",
      "RoadClass": 6,
      "RoadDirection": "E"
    },
    {
      "CCTVID": "C000184",
      "LinkID": "6046680300200B",
      "VideoStreamURL": "https://e-traffic.taichung.gov.tw/ATIS_TCC/Device/Showcctv?id=C000184",
      "LocationType": 1,
      "PositionLon": 120.65674,
      "PositionLat": 24.184752,
      "RoadID": "604668B",
      "RoadName": "中科路",
      "RoadClass": 6,
      "RoadDirection": "SE"
    },
    {
      "CCTVID": "C000186",
      "LinkID": "6047970600120B",
      "VideoStreamURL": "https://e-traffic.taichung.gov.tw/ATIS_TCC/Device/Showcctv?id=C000186",
      "LocationType": 1,
      "PositionLon": 120.626205,
      "PositionLat": 24.148573,
      "RoadID": "604797B",
      "RoadName": "五權西路二段",
      "RoadClass": 6,
      "RoadDirection": "W"
    },
    {
      "CCTVID": "C000192",
      "LinkID": "6060620200120B",
      "VideoStreamURL": "https://e-traffic.taichung.gov.tw/ATIS_TCC/Device/Showcctv?id=C000192",
      "LocationType": 1,
      "PositionLon": 120.7373737,
      "PositionLat": 24.1784738,
      "RoadID": "606062B",
      "RoadName": "東山路一段",
      "RoadClass": 6,
      "RoadDirection": "E"
    },
    {
      "CCTVID": "C000193",
      "LinkID": "6046100000110B",
      "VideoStreamURL": "https://e-traffic.taichung.gov.tw/ATIS_TCC/Device/Showcctv?id=C000193",
      "LocationType": 1,
      "PositionLon": 120.6586348,
      "PositionLat": 24.1762113,
      "RoadID": "604610B",
      "RoadName": "中平路",
      "RoadClass": 6,
      "RoadDirection": "N"
    },
    {
      "CCTVID": "C000204",
      "LinkID": "6078850000120B",
      "VideoStreamURL": "https://e-traffic.taichung.gov.tw/ATIS_TCC/Device/Showcctv?id=C000204",
      "LocationType": 1,
      "PositionLon": 120.719592,
      "PositionLat": 24.163082,
      "RoadID": "607885B",
      "RoadName": "環中東路二段",
      "RoadClass": 6,
      "RoadDirection": "N"
    },
    {
      "CCTVID": "C000205",
      "LinkID": "6050020200110B",
      "VideoStreamURL": "https://e-traffic.taichung.gov.tw/ATIS_TCC/Device/Showcctv?id=C000205",
      "LocationType": 1,
      "PositionLon": 120.719111,
      "PositionLat": 24.163107,
      "RoadID": "605002B",
      "RoadName": "太原路三段",
      "RoadClass": 6,
      "RoadDirection": "E"
    },
    {
      "CCTVID": "C000211",
      "LinkID": "6078860000000B",
      "VideoStreamURL": "https://e-traffic.taichung.gov.tw/ATIS_TCC/Device/Showcctv?id=C000211",
      "LocationType": 1,
      "PositionLon": 120.719117,
      "PositionLat": 24.162011,
      "RoadID": "607886B",
      "RoadName": "環中東路三段",
      "RoadClass": 6,
      "RoadDirection": "N"
    },
    {
      "CCTVID": "C000212",
      "LinkID": "6078840300060B",
      "VideoStreamURL": "https://e-traffic.taichung.gov.tw/ATIS_TCC/Device/Showcctv?id=C000212",
      "LocationType": 1,
      "PositionLon": 120.72152,
      "PositionLat": 24.181956,
      "RoadID": "607884B",
      "RoadName": "環中東路一段",
      "RoadClass": 6,
      "RoadDirection": "SE"
    },
    {
      "CCTVID": "C000216",
      "LinkID": "6071300200020B",
      "VideoStreamURL": "https://e-traffic.taichung.gov.tw/ATIS_TCC/Device/Showcctv?id=C000216",
      "LocationType": 1,
      "PositionLon": 120.567418,
      "PositionLat": 24.156408,
      "RoadID": "607130B",
      "RoadName": "華南路",
      "RoadClass": 6,
      "RoadDirection": "E"
    },
    {
      "CCTVID": "C000217",
      "LinkID": "6071300600010B",
      "VideoStreamURL": "https://e-traffic.taichung.gov.tw/ATIS_TCC/Device/Showcctv?id=C000217",
      "LocationType": 1,
      "PositionLon": 120.561297,
      "PositionLat": 24.154784,
      "RoadID": "607130B",
      "RoadName": "華南路",
      "RoadClass": 6,
      "RoadDirection": "W"
    },
    {
      "CCTVID": "C000218",
      "LinkID": "6071210600050B",
      "VideoStreamURL": "https://e-traffic.taichung.gov.tw/ATIS_TCC/Device/Showcctv?id=C000218",
      "LocationType": 1,
      "PositionLon": 120.552275,
      "PositionLat": 24.160061,
      "RoadID": "607121B",
      "RoadName": "華山路",
      "RoadClass": 6,
      "RoadDirection": "W"
    },
    {
      "CCTVID": "C000220",
      "LinkID": "6051720000010B",
      "VideoStreamURL": "https://e-traffic.taichung.gov.tw/ATIS_TCC/Device/Showcctv?id=C000220",
      "LocationType": 1,
      "PositionLon": 120.7013818,
      "PositionLat": 24.1783337,
      "RoadID": "605172B",
      "RoadName": "北屯路",
      "RoadClass": 6,
      "RoadDirection": "N"
    },
    {
      "CCTVID": "C000221",
      "LinkID": "6050540400000B",
      "VideoStreamURL": "https://e-traffic.taichung.gov.tw/ATIS_TCC/Device/Showcctv?id=C000221",
      "LocationType": 1,
      "PositionLon": 120.6480387,
      "PositionLat": 24.1604877,
      "RoadID": "605054B",
      "RoadName": "文心路二段",
      "RoadClass": 6,
      "RoadDirection": "S"
    },
    {
      "CCTVID": "C000222",
      "LinkID": "6070300100040B",
      "VideoStreamURL": "https://e-traffic.taichung.gov.tw/ATIS_TCC/Device/Showcctv?id=C000222",
      "LocationType": 1,
      "PositionLon": 120.68649,
      "PositionLat": 24.135972,
      "RoadID": "607030B",
      "RoadName": "復興路四段",
      "RoadClass": 6,
      "RoadDirection": "NE"
    },
    {
      "CCTVID": "C000223",
      "LinkID": "6078910200010B",
      "VideoStreamURL": "https://e-traffic.taichung.gov.tw/ATIS_TCC/Device/Showcctv?id=C000223",
      "LocationType": 1,
      "PositionLon": 120.6612747,
      "PositionLat": 24.2007332,
      "RoadID": "607891B",
      "RoadName": "環中路一段",
      "RoadClass": 6,
      "RoadDirection": "E"
    },
    {
      "CCTVID": "C000224",
      "LinkID": "6043000000000B",
      "VideoStreamURL": "https://e-traffic.taichung.gov.tw/ATIS_TCC/Device/Showcctv?id=C000224",
      "LocationType": 1,
      "PositionLon": 120.687792,
      "PositionLat": 24.136803,
      "RoadID": "604300B",
      "RoadName": "大智路",
      "RoadClass": 6,
      "RoadDirection": "N"
    },
    {
      "CCTVID": "C000225",
      "LinkID": "6078850000010B",
      "VideoStreamURL": "https://e-traffic.taichung.gov.tw/ATIS_TCC/Device/Showcctv?id=C000225",
      "LocationType": 1,
      "PositionLon": 120.720964,
      "PositionLat": 24.176009,
      "RoadID": "607885B",
      "RoadName": "環中東路二段",
      "RoadClass": 6,
      "RoadDirection": "N"
    },
    {
      "CCTVID": "C000226",
      "LinkID": "6066610600020B",
      "VideoStreamURL": "https://e-traffic.taichung.gov.tw/ATIS_TCC/Device/Showcctv?id=C000226",
      "LocationType": 1,
      "PositionLon": 120.721082,
      "PositionLat": 24.174966,
      "RoadID": "606661B",
      "RoadName": "軍福十六路",
      "RoadClass": 6,
      "RoadDirection": "W"
    },
    {
      "CCTVID": "C000234",
      "LinkID": "6070590400030B",
      "VideoStreamURL": "https://e-traffic.taichung.gov.tw/ATIS_TCC/Device/Showcctv?id=C000234",
      "LocationType": 1,
      "PositionLon": 120.707627,
      "PositionLat": 24.186531,
      "RoadID": "607059B",
      "RoadName": "敦富路",
      "RoadClass": 6,
      "RoadDirection": "S"
    },
    {
      "CCTVID": "C000235",
      "LinkID": "6070580200030B",
      "VideoStreamURL": "https://e-traffic.taichung.gov.tw/ATIS_TCC/Device/Showcctv?id=C000235",
      "LocationType": 1,
      "PositionLon": 120.6616888,
      "PositionLat": 24.1849527,
      "RoadID": "607058B",
      "RoadName": "敦化路二段",
      "RoadClass": 6,
      "RoadDirection": "E"
    },
    {
      "CCTVID": "C000236",
      "LinkID": "6078840700000B",
      "VideoStreamURL": "https://e-traffic.taichung.gov.tw/ATIS_TCC/Device/Showcctv?id=C000236",
      "LocationType": 1,
      "PositionLon": 120.7037877,
      "PositionLat": 24.2011323,
      "RoadID": "607884B",
      "RoadName": "環中東路一段",
      "RoadClass": 6,
      "RoadDirection": "NW"
    },
    {
      "CCTVID": "C000237",
      "LinkID": "6078910200020B",
      "VideoStreamURL": "https://e-traffic.taichung.gov.tw/ATIS_TCC/Device/Showcctv?id=C000237",
      "LocationType": 1,
      "PositionLon": 120.6652017,
      "PositionLat": 24.20076,
      "RoadID": "607891B",
      "RoadName": "環中路一段",
      "RoadClass": 6,
      "RoadDirection": "E"
    },
    {
      "CCTVID": "C000238",
      "LinkID": "6060620200110B",
      "VideoStreamURL": "https://e-traffic.taichung.gov.tw/ATIS_TCC/Device/Showcctv?id=C000238",
      "LocationType": 1,
      "PositionLon": 120.733725,
      "PositionLat": 24.176963,
      "RoadID": "606062B",
      "RoadName": "東山路一段",
      "RoadClass": 6,
      "RoadDirection": "E"
    },
    {
      "CCTVID": "C000239",
      "LinkID": "6070590400030B",
      "VideoStreamURL": "https://e-traffic.taichung.gov.tw/ATIS_TCC/Device/Showcctv?id=C000239",
      "LocationType": 1,
      "PositionLon": 120.7078328,
      "PositionLat": 24.1850824,
      "RoadID": "607059B",
      "RoadName": "敦富路",
      "RoadClass": 6,
      "RoadDirection": "S"
    },
    {
      "CCTVID": "C000242",
      "LinkID": "6070390100000B",
      "VideoStreamURL": "https://e-traffic.taichung.gov.tw/ATIS_TCC/Device/Showcctv?id=C000242",
      "LocationType": 1,
      "PositionLon": 120.645369,
      "PositionLat": 24.16255,
      "RoadID": "607039B",
      "RoadName": "惠中路一段",
      "RoadClass": 6,
      "RoadDirection": "NE"
    },
    {
      "CCTVID": "C000243",
      "LinkID": "6051450200000B",
      "VideoStreamURL": "https://e-traffic.taichung.gov.tw/ATIS_TCC/Device/Showcctv?id=C000243",
      "LocationType": 1,
      "PositionLon": 120.7248414,
      "PositionLat": 24.2543772,
      "RoadID": "605145B",
      "RoadName": "水源路",
      "RoadClass": 6,
      "RoadDirection": "E"
    },
    {
      "CCTVID": "C000244",
      "LinkID": "6046910300120B",
      "VideoStreamURL": "https://e-traffic.taichung.gov.tw/ATIS_TCC/Device/Showcctv?id=C000244",
      "LocationType": 1,
      "PositionLon": 120.6673801,
      "PositionLat": 24.1797597,
      "RoadID": "604691B",
      "RoadName": "中清路二段",
      "RoadClass": 6,
      "RoadDirection": "SE"
    },
    {
      "CCTVID": "C000245",
      "LinkID": "6080800400040B",
      "VideoStreamURL": "https://e-traffic.taichung.gov.tw/ATIS_TCC/Device/Showcctv?id=C000245",
      "LocationType": 1,
      "PositionLon": 120.6556778,
      "PositionLat": 24.1846008,
      "RoadID": "608080B",
      "RoadName": "啟航路",
      "RoadClass": 6,
      "RoadDirection": "S"
    },
    {
      "CCTVID": "C000246",
      "LinkID": "6076280600090B",
      "VideoStreamURL": "https://e-traffic.taichung.gov.tw/ATIS_TCC/Device/Showcctv?id=C000246",
      "LocationType": 1,
      "PositionLon": 120.624479,
      "PositionLat": 24.178732,
      "RoadID": "607628B",
      "RoadName": "臺灣大道四段",
      "RoadClass": 6,
      "RoadDirection": "W"
    },
    {
      "CCTVID": "C000247",
      "LinkID": "6070390500010B",
      "VideoStreamURL": "https://e-traffic.taichung.gov.tw/ATIS_TCC/Device/Showcctv?id=C000247",
      "LocationType": 1,
      "PositionLon": 120.645041,
      "PositionLat": 24.162501,
      "RoadID": "607039B",
      "RoadName": "惠中路一段",
      "RoadClass": 6,
      "RoadDirection": "SW"
    },
    {
      "CCTVID": "C000248",
      "LinkID": "6046680300150B",
      "VideoStreamURL": "https://e-traffic.taichung.gov.tw/ATIS_TCC/Device/Showcctv?id=C000248",
      "LocationType": 1,
      "PositionLon": 120.6564709,
      "PositionLat": 24.1901707,
      "RoadID": "604668B",
      "RoadName": "中科路",
      "RoadClass": 6,
      "RoadDirection": "SE"
    },
    {
      "CCTVID": "C000250",
      "LinkID": "6046680300130B",
      "VideoStreamURL": "https://e-traffic.taichung.gov.tw/ATIS_TCC/Device/Showcctv?id=C000250",
      "LocationType": 1,
      "PositionLon": 120.6542879,
      "PositionLat": 24.1942202,
      "RoadID": "604668B",
      "RoadName": "中科路",
      "RoadClass": 6,
      "RoadDirection": "SE"
    },
    {
      "CCTVID": "C000251",
      "LinkID": "6048500200010B",
      "VideoStreamURL": "https://e-traffic.taichung.gov.tw/ATIS_TCC/Device/Showcctv?id=C000251",
      "LocationType": 1,
      "PositionLon": 120.718223,
      "PositionLat": 24.2181146,
      "RoadID": "604850B",
      "RoadName": "仁愛路一段",
      "RoadClass": 6,
      "RoadDirection": "E"
    },
    {
      "CCTVID": "C000252",
      "LinkID": "6071530000050B",
      "VideoStreamURL": "https://e-traffic.taichung.gov.tw/ATIS_TCC/Device/Showcctv?id=C000252",
      "LocationType": 1,
      "PositionLon": 120.693049,
      "PositionLat": 24.134673,
      "RoadID": "607153B",
      "RoadName": "進德路",
      "RoadClass": 6,
      "RoadDirection": "N"
    },
    {
      "CCTVID": "C000253",
      "LinkID": "6078910600090B",
      "VideoStreamURL": "https://e-traffic.taichung.gov.tw/ATIS_TCC/Device/Showcctv?id=C000253",
      "LocationType": 1,
      "PositionLon": 120.6864002,
      "PositionLat": 24.2013124,
      "RoadID": "607891B",
      "RoadName": "環中路一段",
      "RoadClass": 6,
      "RoadDirection": "W"
    },
    {
      "CCTVID": "C000254",
      "LinkID": "6078910200100B",
      "VideoStreamURL": "https://e-traffic.taichung.gov.tw/ATIS_TCC/Device/Showcctv?id=C000254",
      "LocationType": 1,
      "PositionLon": 120.683497,
      "PositionLat": 24.200836,
      "RoadID": "607891B",
      "RoadName": "環中路一段",
      "RoadClass": 6,
      "RoadDirection": "E"
    },
    {
      "CCTVID": "C000255",
      "LinkID": "6070580200010B",
      "VideoStreamURL": "https://e-traffic.taichung.gov.tw/ATIS_TCC/Device/Showcctv?id=C000255",
      "LocationType": 1,
      "PositionLon": 120.6581593,
      "PositionLat": 24.1846649,
      "RoadID": "607058B",
      "RoadName": "敦化路二段",
      "RoadClass": 6,
      "RoadDirection": "E"
    },
    {
      "CCTVID": "C000256",
      "LinkID": "6078910600030B",
      "VideoStreamURL": "https://e-traffic.taichung.gov.tw/ATIS_TCC/Device/Showcctv?id=C000256",
      "LocationType": 1,
      "PositionLon": 120.6682974,
      "PositionLat": 24.201217,
      "RoadID": "607891B",
      "RoadName": "環中路一段",
      "RoadClass": 6,
      "RoadDirection": "W"
    },
    {
      "CCTVID": "C000257",
      "LinkID": "6047960200060B",
      "VideoStreamURL": "https://e-traffic.taichung.gov.tw/ATIS_TCC/Device/Showcctv?id=C000257",
      "LocationType": 1,
      "PositionLon": 120.6618539,
      "PositionLat": 24.1400679,
      "RoadID": "604796B",
      "RoadName": "五權西路一段",
      "RoadClass": 6,
      "RoadDirection": "E"
    },
    {
      "CCTVID": "C000258",
      "LinkID": "6050530400020B",
      "VideoStreamURL": "https://e-traffic.taichung.gov.tw/ATIS_TCC/Device/Showcctv?id=C000258",
      "LocationType": 1,
      "PositionLon": 120.6466489,
      "PositionLat": 24.1509208,
      "RoadID": "605053B",
      "RoadName": "文心路一段",
      "RoadClass": 6,
      "RoadDirection": "S"
    },
    {
      "CCTVID": "C000259",
      "LinkID": "6049060600050B",
      "VideoStreamURL": "https://e-traffic.taichung.gov.tw/ATIS_TCC/Device/Showcctv?id=C000259",
      "LocationType": 1,
      "PositionLon": 120.6351577,
      "PositionLat": 24.1512944,
      "RoadID": "604906B",
      "RoadName": "公益路二段",
      "RoadClass": 6,
      "RoadDirection": "W"
    },
    {
      "CCTVID": "C000260",
      "LinkID": "6076260700020B",
      "VideoStreamURL": "https://e-traffic.taichung.gov.tw/ATIS_TCC/Device/Showcctv?id=C000260",
      "LocationType": 1,
      "PositionLon": 120.662424,
      "PositionLat": 24.155505,
      "RoadID": "607626B",
      "RoadName": "臺灣大道二段",
      "RoadClass": 6,
      "RoadDirection": "NW"
    },
    {
      "CCTVID": "C000261",
      "LinkID": "6046680700220B",
      "VideoStreamURL": "https://e-traffic.taichung.gov.tw/ATIS_TCC/Device/Showcctv?id=C000261",
      "LocationType": 1,
      "PositionLon": 120.6556256,
      "PositionLat": 24.1799474,
      "RoadID": "604668B",
      "RoadName": "中科路",
      "RoadClass": 6,
      "RoadDirection": "NW"
    }
  ]
}