{
  "UpdateTime": "2023-08-30T00:22:26+08:00",
  "UpdateInterval": 21600,
  "SrcUpdateTime": "2023-08-30T00:00:03+08:00",
  "SrcUpdateInterval": 86400,
  "AuthorityCode": "PIF",
  "CCTVs": [
    {
      "CCTVID": "C000001",
      "LinkID": "6741150000000T",
      "VideoStreamURL": "http://59.120.122.53/cctv/C000001.htm",
      "LocationType": 1,
      "PositionLon": 120.720135,
      "PositionLat": 22.055713,
      "RoadID": "674115T",
      "RoadName": "大同路",
      "RoadClass": 6,
      "RoadDirection": "N"
    },
    {
      "CCTVID": "C000002",
      "LinkID": "6742410000030T",
      "VideoStreamURL": "http://59.120.122.53/cctv/C000002.htm",
      "LocationType": 1,
      "PositionLon": 120.713994,
      "PositionLat": 22.072612,
      "RoadID": "674241T",
      "RoadName": "中山路二段",
      "RoadClass": 6,
      "RoadDirection": "N"
    },
    {
      "CCTVID": "C000003",
      "LinkID": "6752270600000T",
      "VideoStreamURL": "http://59.120.122.53/cctv/C000003.htm",
      "LocationType": 1,
      "PositionLon": 120.755833,
      "PositionLat": 21.970146,
      "RoadID": "675227T",
      "RoadName": "南光路",
      "RoadClass": 6,
      "RoadDirection": "W"
    },
    {
      "CCTVID": "C000004",
      "LinkID": "6757870300000T",
      "VideoStreamURL": "http://59.120.122.53/cctv/C000004.htm",
      "LocationType": 1,
      "PositionLon": 120.539118,
      "PositionLat": 22.492247,
      "RoadID": "675787T",
      "RoadName": "楓港外環道",
      "RoadClass": 6,
      "RoadDirection": "SE"
    },
    {
      "CCTVID": "C000005",
      "LinkID": "6742410400020T",
      "VideoStreamURL": "http://59.120.122.53/cctv/C000005.htm",
      "LocationType": 1,
      "PositionLon": 120.594005,
      "PositionLat": 22.387342,
      "RoadID": "674241T",
      "RoadName": "中山路二段",
      "RoadClass": 6,
      "RoadDirection": "S"
    },
    {
      "CCTVID": "C000006",
      "LinkID": "6742350400050T",
      "VideoStreamURL": "http://59.120.122.53/cctv/C000006.htm",
      "LocationType": 1,
      "PositionLon": 120.69194,
      "PositionLat": 22.194748,
      "RoadID": "674235T",
      "RoadName": "中山路",
      "RoadClass": 6,
      "RoadDirection": "S"
    },
    {
      "CCTVID": "C000007",
      "LinkID": "6753170000020T",
      "VideoStreamURL": "http://59.120.122.53/cctv/C000007.htm",
      "LocationType": 1,
      "PositionLon": 120.68817,
      "PositionLat": 22.203248,
      "RoadID": "675317T",
      "RoadName": "恆公路",
      "RoadClass": 6,
      "RoadDirection": "NW"
    },
    {
      "CCTVID": "C000008",
      "LinkID": "6751900700000T",
      "VideoStreamURL": "http://59.120.122.53/cctv/C000008.htm",
      "LocationType": 1,
      "PositionLon": 120.706639,
      "PositionLat": 22.2067,
      "RoadID": "675190T",
      "RoadName": "保新路",
      "RoadClass": 6,
      "RoadDirection": "N"
    },
    {
      "CCTVID": "C000009",
      "LinkID": "6752550400090T",
      "VideoStreamURL": "http://59.120.122.53/cctv/C000009.htm",
      "LocationType": 1,
      "PositionLon": 120.456792,
      "PositionLat": 22.480654,
      "RoadID": "675255T",
      "RoadName": "南興路",
      "RoadClass": 6,
      "RoadDirection": "SW"
    },
    {
      "CCTVID": "C000010",
      "LinkID": "6751350000090T",
      "VideoStreamURL": "http://59.120.122.53/cctv/C000010.htm",
      "LocationType": 1,
      "PositionLon": 120.462101,
      "PositionLat": 22.462737,
      "RoadID": "675135T",
      "RoadName": "沿海路",
      "RoadClass": 6,
      "RoadDirection": "N"
    },
    {
      "CCTVID": "C000011",
      "LinkID": "6741780300000T",
      "VideoStreamURL": "http://59.120.122.53/cctv/C000011.htm",
      "LocationType": 1,
      "PositionLon": 120.483568,
      "PositionLat": 22.456367,
      "RoadID": "674178T",
      "RoadName": "大潭路",
      "RoadClass": 6,
      "RoadDirection": "E"
    },
    {
      "CCTVID": "C000012",
      "LinkID": "6742310700030T",
      "VideoStreamURL": "http://59.120.122.53/cctv/C000012.htm",
      "LocationType": 1,
      "PositionLon": 120.506038,
      "PositionLat": 22.445112,
      "RoadID": "674231T",
      "RoadName": "中山路",
      "RoadClass": 6,
      "RoadDirection": "NW"
    },
    {
      "CCTVID": "C000013",
      "LinkID": "6742310300070T",
      "VideoStreamURL": "http://59.120.122.53/cctv/C000013.htm",
      "LocationType": 1,
      "PositionLon": 120.525733,
      "PositionLat": 22.429707,
      "RoadID": "674231T",
      "RoadName": "中山路",
      "RoadClass": 6,
      "RoadDirection": "SE"
    },
    {
      "CCTVID": "C000014",
      "LinkID": "6754470200040T",
      "VideoStreamURL": "http://59.120.122.53/cctv/C000014.htm",
      "LocationType": 1,
      "PositionLon": 120.516672,
      "PositionLat": 22.454267,
      "RoadID": "675447T",
      "RoadName": "國三高架下方道路",
      "RoadClass": 6,
      "RoadDirection": "SW"
    },
    {
      "CCTVID": "C000015",
      "LinkID": "6754470200000T",
      "VideoStreamURL": "http://59.120.122.53/cctv/C000015.htm",
      "LocationType": 1,
      "PositionLon": 120.531092,
      "PositionLat": 22.48623,
      "RoadID": "675447T",
      "RoadName": "國三高架下方道路",
      "RoadClass": 6,
      "RoadDirection": "S"
    },
    {
      "CCTVID": "C000016",
      "LinkID": "6754460000065T",
      "VideoStreamURL": "http://59.120.122.53/cctv/C000016.htm",
      "LocationType": 1,
      "PositionLon": 120.524912,
      "PositionLat": 22.515015,
      "RoadID": "675446T",
      "RoadName": "國三高架下方道路",
      "RoadClass": 6,
      "RoadDirection": "N"
    },
    {
      "CCTVID": "C000028",
      "LinkID": "6760860700010T",
      "VideoStreamURL": "http://59.120.122.53/cctv/C000028.htm",
      "LocationType": 1,
      "PositionLon": 120.441381,
      "PositionLat": 22.497459,
      "RoadID": "676086T",
      "RoadName": "龍洲路",
      "RoadClass": 6,
      "RoadDirection": "NW"
    },
    {
      "CCTVID": "C000029",
      "LinkID": "6741730000000T",
      "VideoStreamURL": "http://59.120.122.53/cctv/C000029.htm",
      "LocationType": 1,
      "PositionLon": 120.450376,
      "PositionLat": 22.650234,
      "RoadID": "674173T",
      "RoadName": "大溪路",
      "RoadClass": 6,
      "RoadDirection": "N"
    },
    {
      "CCTVID": "C000030",
      "LinkID": "6752850200040T",
      "VideoStreamURL": "http://59.120.122.53/cctv/C000030.htm",
      "LocationType": 1,
      "PositionLon": 120.466258,
      "PositionLat": 22.655429,
      "RoadID": "675285T",
      "RoadName": "建國路",
      "RoadClass": 6,
      "RoadDirection": "E"
    },
    {
      "CCTVID": "C000031",
      "LinkID": "6758300400000T",
      "VideoStreamURL": "http://59.120.122.53/cctv/C000031.htm",
      "LocationType": 1,
      "PositionLon": 120.485222,
      "PositionLat": 22.612025,
      "RoadID": "675830T",
      "RoadName": "萬丹路二段",
      "RoadClass": 6,
      "RoadDirection": "S"
    },
    {
      "CCTVID": "C000032",
      "LinkID": "6758450700070T",
      "VideoStreamURL": "http://59.120.122.53/cctv/C000032.htm",
      "LocationType": 1,
      "PositionLon": 120.478475,
      "PositionLat": 22.570768,
      "RoadID": "675845T",
      "RoadName": "萬順路二段",
      "RoadClass": 6,
      "RoadDirection": "NW"
    },
    {
      "CCTVID": "C000033",
      "LinkID": "6752550400090T",
      "VideoStreamURL": "http://59.120.122.53/cctv/C000033.htm",
      "LocationType": 1,
      "PositionLon": 120.45708,
      "PositionLat": 22.480464,
      "RoadID": "675255T",
      "RoadName": "南興路",
      "RoadClass": 6,
      "RoadDirection": "SW"
    },
    {
      "CCTVID": "C000054",
      "LinkID": "6742480000000T",
      "VideoStreamURL": "http://59.120.122.53/cctv/C000054.htm",
      "LocationType": 1,
      "PositionLon": 120.598364,
      "PositionLat": 22.377916,
      "RoadID": "674248T",
      "RoadName": "中正大路",
      "RoadClass": 6,
      "RoadDirection": "NW"
    },
    {
      "CCTVID": "C000055",
      "LinkID": "6742310300010T",
      "VideoStreamURL": "http://59.120.122.53/cctv/C000055.htm",
      "LocationType": 1,
      "PositionLon": 120.512599,
      "PositionLat": 22.437275,
      "RoadID": "674231T",
      "RoadName": "中山路",
      "RoadClass": 6,
      "RoadDirection": "SE"
    },
    {
      "CCTVID": "C000056",
      "LinkID": "6756100600050T",
      "VideoStreamURL": "http://59.120.122.53/cctv/C000056.htm",
      "LocationType": 1,
      "PositionLon": 120.537145,
      "PositionLat": 22.491526,
      "RoadID": "675610T",
      "RoadName": "無名道路4",
      "RoadClass": 6,
      "RoadDirection": "NW"
    },
    {
      "CCTVID": "C000057",
      "LinkID": "6741830300010T",
      "VideoStreamURL": "http://59.120.122.53/cctv/C000057.htm",
      "LocationType": 1,
      "PositionLon": 120.55047,
      "PositionLat": 22.458796,
      "RoadID": "674183T",
      "RoadName": "大豐路",
      "RoadClass": 6,
      "RoadDirection": "SE"
    },
    {
      "CCTVID": "C000058",
      "LinkID": "6751352000010T",
      "VideoStreamURL": "http://59.120.122.53/cctv/C000058.htm",
      "LocationType": 1,
      "PositionLon": 120.460244,
      "PositionLat": 22.477095,
      "RoadID": "675135T",
      "RoadName": "沿海路",
      "RoadClass": 6,
      "RoadDirection": "NW"
    },
    {
      "CCTVID": "C000059",
      "LinkID": "6742420700040T",
      "VideoStreamURL": "http://59.120.122.53/cctv/C000059.htm",
      "LocationType": 1,
      "PositionLon": 120.588803,
      "PositionLat": 22.404194,
      "RoadID": "674242T",
      "RoadName": "中山路三段",
      "RoadClass": 6,
      "RoadDirection": "N"
    },
    {
      "CCTVID": "C000064",
      "LinkID": "6752260700000T",
      "VideoStreamURL": "http://59.120.122.53/cctv/C000064.htm",
      "LocationType": 1,
      "PositionLon": 120.449998,
      "PositionLat": 22.650821,
      "RoadID": "675226T",
      "RoadName": "南平路",
      "RoadClass": 6,
      "RoadDirection": "NE"
    },
    {
      "CCTVID": "C000065",
      "LinkID": "6761750700000T",
      "VideoStreamURL": "http://59.120.122.53/cctv/C000065.htm",
      "LocationType": 1,
      "PositionLon": 120.488183,
      "PositionLat": 22.707614,
      "RoadID": "676175T",
      "RoadName": "鵬灣大道四段",
      "RoadClass": 6,
      "RoadDirection": "NW"
    },
    {
      "CCTVID": "C000066",
      "LinkID": "6761770500000T",
      "VideoStreamURL": "http://59.120.122.53/cctv/C000066.htm",
      "LocationType": 1,
      "PositionLon": 120.478448,
      "PositionLat": 22.669611,
      "RoadID": "676177T",
      "RoadName": "鵬灣大道六段",
      "RoadClass": 6,
      "RoadDirection": "SW"
    },
    {
      "CCTVID": "C000067",
      "LinkID": "6761720300010T",
      "VideoStreamURL": "http://59.120.122.53/cctv/C000067.htm",
      "LocationType": 1,
      "PositionLon": 120.484596,
      "PositionLat": 22.669752,
      "RoadID": "676172T",
      "RoadName": "鵬灣大道一段",
      "RoadClass": 6,
      "RoadDirection": "SE"
    },
    {
      "CCTVID": "C000068",
      "LinkID": "6761720300010T",
      "VideoStreamURL": "http://59.120.122.53/cctv/C000068.htm",
      "LocationType": 1,
      "PositionLon": 120.489292,
      "PositionLat": 22.671007,
      "RoadID": "676172T",
      "RoadName": "鵬灣大道一段",
      "RoadClass": 6,
      "RoadDirection": "SE"
    },
    {
      "CCTVID": "C000069",
      "LinkID": "6761720700000T",
      "VideoStreamURL": "http://59.120.122.53/cctv/C000069.htm",
      "LocationType": 1,
      "PositionLon": 120.547949,
      "PositionLat": 22.470103,
      "RoadID": "676172T",
      "RoadName": "鵬灣大道一段",
      "RoadClass": 6,
      "RoadDirection": "NW"
    },
    {
      "CCTVID": "C000070",
      "LinkID": "6761730600020T",
      "VideoStreamURL": "http://59.120.122.53/cctv/C000070.htm",
      "LocationType": 1,
      "PositionLon": 120.562016,
      "PositionLat": 22.443255,
      "RoadID": "676173T",
      "RoadName": "鵬灣大道二段",
      "RoadClass": 6,
      "RoadDirection": "W"
    },
    {
      "CCTVID": "C000071",
      "LinkID": "6761730600020T",
      "VideoStreamURL": "http://59.120.122.53/cctv/C000071.htm",
      "LocationType": 1,
      "PositionLon": 120.573379,
      "PositionLat": 22.431406,
      "RoadID": "676173T",
      "RoadName": "鵬灣大道二段",
      "RoadClass": 6,
      "RoadDirection": "W"
    },
    {
      "CCTVID": "C000072",
      "LinkID": "6742250000140T",
      "VideoStreamURL": "http://59.120.122.53/cctv/C000072.htm",
      "LocationType": 1,
      "PositionLon": 120.48627,
      "PositionLat": 22.66963,
      "RoadID": "674225T",
      "RoadName": "中山路",
      "RoadClass": 6,
      "RoadDirection": "N"
    },
    {
      "CCTVID": "C000073",
      "LinkID": "6741600500040T",
      "VideoStreamURL": "http://59.120.122.53/cctv/C000073.htm",
      "LocationType": 1,
      "PositionLon": 120.49773,
      "PositionLat": 22.67916,
      "RoadID": "674160T",
      "RoadName": "大連路",
      "RoadClass": 6,
      "RoadDirection": "SW"
    },
    {
      "CCTVID": "C000074",
      "LinkID": "6761720700000T",
      "VideoStreamURL": "http://59.120.122.53/cctv/C000074.htm",
      "LocationType": 1,
      "PositionLon": 120.48357,
      "PositionLat": 22.4561,
      "RoadID": "676172T",
      "RoadName": "鵬灣大道一段",
      "RoadClass": 6,
      "RoadDirection": "NW"
    },
    {
      "CCTVID": "C000075",
      "LinkID": "6755980600020T",
      "VideoStreamURL": "http://59.120.122.53/cctv/C000075.htm",
      "LocationType": 1,
      "PositionLon": 120.44688,
      "PositionLat": 22.46895,
      "RoadID": "675598T",
      "RoadName": "朝隆路",
      "RoadClass": 6,
      "RoadDirection": "W"
    },
    {
      "CCTVID": "C000076",
      "LinkID": "6747640200020T",
      "VideoStreamURL": "http://59.120.122.53/cctv/C000076.htm",
      "LocationType": 1,
      "PositionLon": 120.46367,
      "PositionLat": 22.4699,
      "RoadID": "674764T",
      "RoadName": "光復路一段",
      "RoadClass": 6,
      "RoadDirection": "E"
    },
    {
      "CCTVID": "C000077",
      "LinkID": "6751350000050T",
      "VideoStreamURL": "http://59.120.122.53/cctv/C000077.htm",
      "LocationType": 1,
      "PositionLon": 120.46383,
      "PositionLat": 22.47283,
      "RoadID": "675135T",
      "RoadName": "沿海路",
      "RoadClass": 6,
      "RoadDirection": "N"
    },
    {
      "CCTVID": "C000078",
      "LinkID": "6747650500000T",
      "VideoStreamURL": "http://59.120.122.53/cctv/C000078.htm",
      "LocationType": 1,
      "PositionLon": 120.45483,
      "PositionLat": 22.46877,
      "RoadID": "674765T",
      "RoadName": "光復路二段",
      "RoadClass": 6,
      "RoadDirection": "SW"
    },
    {
      "CCTVID": "C000081",
      "LinkID": "6741150000000T",
      "VideoStreamURL": "http://59.120.122.53/cctv/C000081.htm",
      "LocationType": 1,
      "PositionLon": 120.53787,
      "PositionLat": 22.49499,
      "RoadID": "674115T",
      "RoadName": "大同路",
      "RoadClass": 6,
      "RoadDirection": "N"
    },
    {
      "CCTVID": "C000082",
      "LinkID": "6742190000000T",
      "VideoStreamURL": "http://59.120.122.53/cctv/C000082.htm",
      "LocationType": 1,
      "PositionLon": 120.53658,
      "PositionLat": 22.55009,
      "RoadID": "674219T",
      "RoadName": "中山八巷",
      "RoadClass": 6,
      "RoadDirection": "N"
    },
    {
      "CCTVID": "C000083",
      "LinkID": "6761730200020T",
      "VideoStreamURL": "http://59.120.122.53/cctv/C000083.htm",
      "LocationType": 1,
      "PositionLon": 120.609231,
      "PositionLat": 22.347017,
      "RoadID": "676173T",
      "RoadName": "鵬灣大道二段",
      "RoadClass": 6,
      "RoadDirection": "E"
    }
  ]
}