{
  "UpdateTime": "2023-08-30T00:22:26+08:00",
  "UpdateInterval": 21600,
  "SrcUpdateTime": "2023-08-30T00:00:03+08:00",
  "SrcUpdateInterval": 86400,
  "AuthorityCode": "PIF",
  "CCTVs": [
    {
      "CCTVID": "C000001",
      "LinkID": "6741150000000T",
      "VideoStreamURL": "http://59.120.122.53/cctv/C000001.htm",
      "LocationType": 1,
      "PositionLon": 120.720135,
      "PositionLat": 22.055713,
      "RoadID": "674115T",
      "RoadName": "大同路",
      "RoadClass": 6,
      "RoadDirection": "N"
    },
    {
      "CCTVID": "C000002",
      "LinkID": "6742410000030T",
      "VideoStreamURL": "http://59.120.122.53/cctv/C000002.htm",
      "LocationType": 1,
      "PositionLon": 120.713994,
      "PositionLat": 22.072612,
      "RoadID": "674241T",
      "RoadName": "中山路二段",
      "RoadClass": 6,
      "RoadDirection": "N"
    },
    {
      "CCTVID": "C000003",
      "LinkID": "6752270600000T",
      "VideoStreamURL": "http://59.120.122.53/cctv/C000003.htm",
      "LocationType": 1,
      "PositionLon": 120.755833,
      "PositionLat": 21.970146,
      "RoadID": "675227T",
      "RoadName": "南光路",
      "RoadClass": 6,
      "RoadDirection": "W"
    },
    {
      "CCTVID": "C000004",
      "LinkID": "6757870300000T",
      "VideoStreamURL": "http://59.120.122.53/cctv/C000004.htm",
      "LocationType": 1,
      "PositionLon": 120.539118,
      "PositionLat": 22.492247,
      "RoadID": "675787T",
      "RoadName": "楓港外環道",
      "RoadClass": 6,
      "RoadDirection": "SE"
    },
    {
      "CCTVID": "C000005",
      "LinkID": "6742410400020T",
      "VideoStreamURL": "http://59.120.122.53/cctv/C000005.htm",
      "LocationType": 1,
      "PositionLon": 120.594005,
      "PositionLat": 22.387342,
      "RoadID": "674241T",
      "RoadName": "中山路二段",
      "RoadClass": 6,
      "RoadDirection": "S"
    },
    {
      "CCTVID": "C000006",
      "LinkID": "6742350400050T",
      "VideoStreamURL": "http://59.120.122.53/cctv/C000006.htm",
      "LocationType": 1,
      "PositionLon": 120.69194,
      "PositionLat": 22.194748,
      "RoadID": "674235T",
      "RoadName": "中山路",
      "RoadClass": 6,
      "RoadDirection": "S"
    },
    {
      "CCTVID": "C000007",
      "LinkID": "6753170000020T",
      "VideoStreamURL": "http://59.120.122.53/cctv/C000007.htm",
      "LocationType": 1,
      "PositionLon": 120.68817,
      "PositionLat": 22.203248,
      "RoadID": "675317T",
      "RoadName": "恆公路",
      "RoadClass": 6,
      "RoadDirection": "NW"
    },
    {
      "CCTVID": "C000008",
      "LinkID": "6751900700000T",
      "VideoStreamURL": "http://59.120.122.53/cctv/C000008.htm",
      "LocationType": 1,
      "PositionLon": 120.706639,
      "PositionLat": 22.2067,
      "RoadID": "675190T",
      "RoadName": "保新路",
      "RoadClass": 6,
      "RoadDirection": "N"
    },
    {
      "CCTVID": "C000009",
      "LinkID": "6752550400090T",
      "VideoStreamURL": "http://59.120.122.53/cctv/C000009.htm",
      "LocationType": 1,
      "PositionLon": 120.456792,
      "PositionLat": 22.480654,
      "RoadID": "675255T",
      "RoadName": "南興路",
      "RoadClass": 6,
      "RoadDirection": "SW"
    },
    {
      "CCTVID": "C000010",
      "LinkID": "6751350000090T",
      "VideoStreamURL": "http://59.120.122.53/cctv/C000010.htm",
      "LocationType": 1,
      "PositionLon": 120.462101,
      "PositionLat": 22.462737,
      "RoadID": "675135T",
      "RoadName": "沿海路",
      "RoadClass": 6,
      "RoadDirection": "N"
    },
    {
      "CCTVID": "C000011",
      "LinkID": "6741780300000T",
      "VideoStreamURL": "http://59.120.122.53/cctv/C000011.htm",
      "LocationType": 1,
      "PositionLon": 120.483568,
      "PositionLat": 22.456367,
      "RoadID": "674178T",
      "RoadName": "大潭路",
      "RoadClass": 6,
      "RoadDirection": "E"
    },
    {
      "CCTVID": "C000012",
      "LinkID": "6742310700030T",
      "VideoStreamURL": "http://59.120.122.53/cctv/C000012.htm",
      "LocationType": 1,
      "PositionLon": 120.506038,
      "PositionLat": 22.445112,
      "RoadID": "674231T",
      "RoadName": "中山路",
      "RoadClass": 6,
      "RoadDirection": "NW"
    },
    {
      "CCTVID": "C000013",
      "LinkID": "6742310300070T",
      "VideoStreamURL": "http://59.120.122.53/cctv/C000013.htm",
      "LocationType": 1,
      "PositionLon": 120.525733,
      "PositionLat": 22.429707,
      "RoadID": "674231T",
      "RoadName": "中山路",
      "RoadClass": 6,
      "RoadDirection": "SE"
    },
    {
      "CCTVID": "C000014",
      "LinkID": "6754470200040T",
      "VideoStreamURL": "http://59.120.122.53/cctv/C000014.htm",
      "LocationType": 1,
      "PositionLon": 120.516672,
      "PositionLat": 22.454267,
      "RoadID": "675447T",
      "RoadName": "國三高架下方道路",
      "RoadClass": 6,
      "RoadDirection": "SW"
    },
    {
      "CCTVID": "C000015",
      "LinkID": "6754470200000T",
      "VideoStreamURL": "http://59.120.122.53/cctv/C000015.htm",
      "LocationType": 1,
      "PositionLon": 120.531092,
      "PositionLat": 22.48623,
      "RoadID": "675447T",
      "RoadName": "國三高架下方道路",
      "RoadClass": 6,
      "RoadDirection": "S"
    },
    {
      "CCTVID": "C000016",
      "LinkID": "6754460000065T",
      "VideoStreamURL": "http://59.120.122.53/cctv/C000016.htm",
      "LocationType": 1,
      "PositionLon": 120.524912,
      "PositionLat": 22.515015,
      "RoadID": "675446T",
      "RoadName": "國三高架下方道路",
      "RoadClass": 6,
      "RoadDirection": "N"
    },
    {
      "CCTVID": "C000028",
      "LinkID": "6760860700010T",
      "VideoStreamURL": "http://59.120.122.53/cctv/C000028.htm",
      "LocationType": 1,
      "PositionLon": 120.441381,
      "PositionLat": 22.497459,
      "RoadID": "676086T",
      "RoadName": "龍洲路",
      "RoadClass": 6,
      "RoadDirection": "NW"
    },
    {
      "CCTVID": "C000029",
      "LinkID": "6741730000000T",
      "VideoStreamURL": "http://59.120.122.53/cctv/C000029.htm",
      "LocationType": 1,
      "PositionLon": 120.450376,
      "PositionLat": 22.650234,
      "RoadID": "674173T",
      "RoadName": "大溪路",
      "RoadClass": 6,
      "RoadDirection": "N"
    },
    {
      "CCTVID": "C000030",
      "LinkID": "6752850200040T",
      "VideoStreamURL": "http://59.120.122.53/cctv/C000030.htm",
      "LocationType": 1,
      "PositionLon": 120.466258,
      "PositionLat": 22.655429,
      "RoadID": "675285T",
      "RoadName": "建國路",
      "RoadClass": 6,
      "RoadDirection": "E"
    },
    {
      "CCTVID": "C000031",
      "LinkID": "6758300400000T",
      "VideoStreamURL": "http://59.120.122.53/cctv/C000031.htm",
      "LocationType": 1,
      "PositionLon": 120.485222,
      "PositionLat": 22.612025,
      "RoadID": "675830T",
      "RoadName": "萬丹路二段",
      "RoadClass": 6,
      "RoadDirection": "S"
    },
    {
      "CCTVID": "C000032",
      "LinkID": "6758450700070T",
      "VideoStreamURL": "http://59.120.122.53/cctv/C000032.htm",
      "LocationType": 1,
      "PositionLon": 120.478475,
      "PositionLat": 22.570768,
      "RoadID": "675845T",
      "RoadName": "萬順路二段",
      "RoadClass": 6,
      "RoadDirection": "NW"
    },
    {
      "CCTVID": "C000033",
      "LinkID": "6752550400090T",
      "VideoStreamURL": "http://59.120.122.53/cctv/C000033.htm",
      "LocationType": 1,
      "PositionLon": 120.45708,
      "PositionLat": 22.480464,
      "RoadID": "675255T",
      "RoadName": "南興路",
      "RoadClass": 6,
      "RoadDirection": "SW"
    },
    {
      "CCTVID": "C000054",
      "LinkID": "6742480000000T",
      "VideoStreamURL": "http://59.120.122.53/cctv/C000054.htm",
      "LocationType": 1,
      "PositionLon": 120.598364,
      "PositionLat": 22.377916,
      "RoadID": "674248T",
      "RoadName": "中正大路",
      "RoadClass": 6,
      "RoadDirection": "NW"
    },
    {
      "CCTVID": "C000055",
      "LinkID": "6742310300010T",
      "VideoStreamURL": "http://59.120.122.53/cctv/C000055.htm",
      "LocationType": 1,
      "PositionLon": 120.512599,
      "PositionLat": 22.437275,
      "RoadID": "674231T",
      "RoadName": "中山路",
      "RoadClass": 6,
      "RoadDirection": "SE"
    },
    {
      "CCTVID": "C000056",
      "LinkID": "6756100600050T",
      "VideoStreamURL": "http://59.120.122.53/cctv/C000056.htm",
      "LocationType": 1,
      "PositionLon": 120.537145,
      "PositionLat": 22.491526,
      "RoadID": "675610T",
      "RoadName": "無名道路4",
      "RoadClass": 6,
      "RoadDirection": "NW"
    },
    {
      "CCTVID": "C000057",
      "LinkID": "6741830300010T",
      "VideoStreamURL": "http://59.120.122.53/cctv/C000057.htm",
      "LocationType": 1,
      "PositionLon": 120.55047,
      "PositionLat": 22.458796,
      "RoadID": "674183T",
      "RoadName": "大豐路",
      "RoadClass": 6,
      "RoadDirection": "SE"
    },
    {
      "CCTVID": "C000058",
      "LinkID": "6751352000010T",
      "VideoStreamURL": "http://59.120.122.53/cctv/C000058.htm",
      "LocationType": 1,
      "PositionLon": 120.460244,
      "PositionLat": 22.477095,
      "RoadID": "675135T",
      "RoadName": "沿海路",
      "RoadClass": 6,
      "RoadDirection": "NW"
    },
    {
      "CCTVID": "C000059",
      "LinkID": "6742420700040T",
      "VideoStreamURL": "http://59.120.122.53/cctv/C000059.htm",
      "LocationType": 1,
      "PositionLon": 120.588803,
      "PositionLat": 22.404194,
      "RoadID": "674242T",
      "RoadName": "中山路三段",
      "RoadClass": 6,
      "RoadDirection": "N"
    },
    {
      "CCTVID": "C000064",
      "LinkID": "6752260700000T",
      "VideoStreamURL": "http://59.120.122.53/cctv/C000064.htm",
      "LocationType": 1,
      "PositionLon": 120.449998,
      "PositionLat": 22.650821,
      "RoadID": "675226T",
      "RoadName": "南平路",
      "RoadClass": 6,
      "RoadDirection": "NE"
    },
    {
      "CCTVID": "C000065",
      "LinkID": "6761750700000T",
      "VideoStreamURL": "http://59.120.122.53/cctv/C000065.htm",
      "LocationType": 1,
      "PositionLon": 120.488183,
      "PositionLat": 22.707614,
      "RoadID": "676175T",
      "RoadName": "鵬灣大道四段",
      "RoadClass": 6,
      "RoadDirection": "NW"
    },
    {
      "CCTVID": "C000066",
      "LinkID": "6761770500000T",
      "VideoStreamURL": "http://59.120.122.53/cctv/C000066.htm",
      "LocationType": 1,
      "PositionLon": 120.478448,
      "PositionLat": 22.669611,
      "RoadID": "676177T",
      "RoadName": "鵬灣大道六段",
      "RoadClass": 6,
      "RoadDirection": "SW"
    },
    {
      "CCTVID": "C000067",
      "LinkID": "6761720300010T",
      "VideoStreamURL": "http://59.120.122.53/cctv/C000067.htm",
      "LocationType": 1,
      "PositionLon": 120.484596,
      "PositionLat": 22.669752,
      "RoadID": "676172T",
      "RoadName": "鵬灣大道一段",
      "RoadClass": 6,
      "RoadDirection": "SE"
    },
    {
      "CCTVID": "C000068",
      "LinkID": "6761720300010T",
      "VideoStreamURL": "http://59.120.122.53/cctv/C000068.htm",
      "LocationType": 1,
      "PositionLon": 120.489292,
      "PositionLat": 22.671007,
      "RoadID": "676172T",
      "RoadName": "鵬灣大道一段",
      "RoadClass": 6,
      "RoadDirection": "SE"
    },
    {
      "CCTVID": "C000069",
      "LinkID": "6761720700000T",
      "VideoStreamURL": "http://59.120.122.53/cctv/C000069.htm",
      "LocationType": 1,
      "PositionLon": 120.547949,
      "PositionLat": 22.470103,
      "RoadID": "676172T",
      "RoadName": "鵬灣大道一段",
      "RoadClass": 6,
      "RoadDirection": "NW"
    },
    {
      "CCTVID": "C000070",
      "LinkID": "6761730600020T",
      "VideoStreamURL": "http://59.120.122.53/cctv/C000070.htm",
      "LocationType": 1,
      "PositionLon": 120.562016,
      "PositionLat": 22.443255,
      "RoadID": "676173T",
      "RoadName": "鵬灣大道二段",
      "RoadClass": 6,
      "RoadDirection": "W"
    },
    {
      "CCTVID": "C000071",
      "LinkID": "6761730600020T",
      "VideoStreamURL": "http://59.120.122.53/cctv/C000071.htm",
      "LocationType": 1,
      "PositionLon": 120.573379,
      "PositionLat": 22.431406,
      "RoadID": "676173T",
      "RoadName": "鵬灣大道二段",
      "RoadClass": 6,
      "RoadDirection": "W"
    },
    {
      "CCTVID": "C000072",
      "LinkID": "6742250000140T",
      "VideoStreamURL": "http://59.120.122.53/cctv/C000072.htm",
      "LocationType": 1,
      "PositionLon": 120.48627,
      "PositionLat": 22.66963,
      "RoadID": "674225T",
      "RoadName": "中山路",
      "RoadClass": 6,
      "RoadDirection": "N"
    },
    {
      "CCTVID": "C000073",
      "LinkID": "6741600500040T",
      "VideoStreamURL": "http://59.120.122.53/cctv/C000073.htm",
      "LocationType": 1,
      "PositionLon": 120.49773,
      "PositionLat": 22.67916,
      "RoadID": "674160T",
      "RoadName": "大連路",
      "RoadClass": 6,
      "RoadDirection": "SW"
    },
    {
      "CCTVID": "C000074",
      "LinkID": "6761720700000T",
      "VideoStreamURL": "http://59.120.122.53/cctv/C000074.htm",
      "LocationType": 1,
      "PositionLon": 120.48357,
      "PositionLat": 22.4561,
      "RoadID": "676172T",
      "RoadName": "鵬灣大道一段",
      "RoadClass": 6,
      "RoadDirection": "NW"
    },
    {
      "CCTVID": "C000075",
      "LinkID": "6755980600020T",
      "VideoStreamURL": "http://59.120.122.53/cctv/C000075.htm",
      "LocationType": 1,
      "PositionLon": 120.44688,
      "PositionLat": 22.46895,
      "RoadID": "675598T",
      "RoadName": "朝隆路",
      "RoadClass": 6,
      "RoadDirection": "W"
    },
    {
      "CCTVID": "C000076",
      "LinkID": "6747640200020T",
      "VideoStreamURL": "http://59.120.122.53/cctv/C000076.htm",
      "LocationType": 1,
      "PositionLon": 120.46367,
      "PositionLat": 22.4699,
      "RoadID": "674764T",
      "RoadName": "光復路一段",
      "RoadClass": 6,
      "RoadDirection": "E"
    },
    {
      "CCTVID": "C000077",
      "LinkID": "6751350000050T",
      "VideoStreamURL": "http://59.120.122.53/cctv/C000077.htm",
      "LocationType": 1,
      "PositionLon": 120.46383,
      "PositionLat": 22.47283,
      "RoadID": "675135T",
      "RoadName": "沿海路",
      "RoadClass": 6,
      "RoadDirection": "N"
    },
    {
      "CCTVID": "C000078",
      "LinkID": "6747650500000T",
      "VideoStreamURL": "http://59.120.122.53/cctv/C000078.htm",
      "LocationType": 1,
      "PositionLon": 120.45483,
      "PositionLat": 22.46877,
      "RoadID": "674765T",
      "RoadName": "光復路二段",
      "RoadClass": 6,
      "RoadDirection": "SW"
    },
    {
      "CCTVID": "C000081",
      "LinkID": "6741150000000T",
      "VideoStreamURL": "http://59.120.122.53/cctv/C000081.htm",
      "LocationType": 1,
      "PositionLon": 120.53787,
      "PositionLat": 22.49499,
      "RoadID": "674115T",
      "RoadName": "大同路",
      "RoadClass": 6,
      "RoadDirection": "N"
    },
    {
      "CCTVID": "C000082",
      "LinkID": "6742190000000T",
      "VideoStreamURL": "http://59.120.122.53/cctv/C000082.htm",
      "LocationType": 1,
      "PositionLon": 120.53658,
      "PositionLat": 22.55009,
      "RoadID": "674219T",
      "RoadName": "中山八巷",
      "RoadClass": 6,
      "RoadDirection": "N"
    },
    {
      "CCTVID": "C000083",
      "LinkID": "6761730200020T",
      "VideoStreamURL": "http://59.120.122.53/cctv/C000083.htm",
      "LocationType": 1,
      "PositionLon": 120.609231,
      "PositionLat": 22.347017,
      "RoadID": "676173T",
      "RoadName": "鵬灣大道二段",
      "RoadClass": 6,
      "RoadDirection": "E"
    },
    {
      "CCTVID": "300260009492",
      "VideoStreamURL": "https://cctv-ss04.thb.gov.tw:443/T26-21K+323",
      "PositionLon": 120.7379979,
      "PositionLat": 22.03707198,
      "SurveillanceDescription": "台26線21K+323",
      "RoadName": "台26線",
      "CityName": "屏東縣",
      "TownName": "恆春鎮",
      "City": "PingtungCounty"
    },
    {
      "CCTVID": "300010003963",
      "VideoStreamURL": "https://cctv-ss04.thb.gov.tw:443/T1-412K+450",
      "PositionLon": 120.543499,
      "PositionLat": 22.569834,
      "SurveillanceDescription": "台1線412K+450",
      "RoadName": "台1線",
      "CityName": "屏東縣",
      "TownName": "竹田鄉",
      "City": "PingtungCounty"
    },
    {
      "CCTVID": "300170012388",
      "VideoStreamURL": "https://cctv-ss04.thb.gov.tw:443/T17-255K+350N",
      "PositionLon": 120.461299,
      "PositionLat": 22.475831,
      "SurveillanceDescription": "台17線255K+350(北)",
      "RoadName": "台17線",
      "CityName": "屏東縣",
      "TownName": "東港鎮",
      "City": "PingtungCounty"
    },
    {
      "CCTVID": "300170001904",
      "VideoStreamURL": "https://cctv-ss04.thb.gov.tw:443/T17-255K+350S",
      "PositionLon": 120.460111,
      "PositionLat": 22.476961,
      "SurveillanceDescription": "台17線255K+350(南)",
      "RoadName": "台17線",
      "CityName": "屏東縣",
      "TownName": "東港鎮",
      "City": "PingtungCounty"
    },
    {
      "CCTVID": "300170202402",
      "VideoStreamURL": "https://cctv-ss04.thb.gov.tw:443/T17-255K+500",
      "PositionLon": 120.4625646,
      "PositionLat": 22.4742509,
      "SurveillanceDescription": "台17線255K+500",
      "RoadName": "台17線",
      "CityName": "屏東縣",
      "TownName": "東港鎮",
      "City": "PingtungCounty"
    },
    {
      "CCTVID": "300170002030",
      "VideoStreamURL": "https://cctv-ss04.thb.gov.tw:443/T17-256K+100",
      "PositionLon": 120.4637089,
      "PositionLat": 22.4677747,
      "SurveillanceDescription": "台17線256K+100",
      "RoadName": "台17線",
      "CityName": "屏東縣",
      "TownName": "東港鎮",
      "City": "PingtungCounty"
    },
    {
      "CCTVID": "300170002435",
      "VideoStreamURL": "https://cctv-ss04.thb.gov.tw:443/T17-256K+800",
      "PositionLon": 120.4621029,
      "PositionLat": 22.4626941,
      "SurveillanceDescription": "台17線256K+800",
      "RoadName": "台17線",
      "CityName": "屏東縣",
      "TownName": "東港鎮",
      "City": "PingtungCounty"
    },
    {
      "CCTVID": "300170001674",
      "VideoStreamURL": "https://cctv-ss04.thb.gov.tw:443/T17-258K+000",
      "PositionLon": 120.4727479,
      "PositionLat": 22.4597162,
      "SurveillanceDescription": "台17線258K+000",
      "RoadName": "台17線",
      "CityName": "屏東縣",
      "TownName": "東港鎮",
      "City": "PingtungCounty"
    },
    {
      "CCTVID": "300170012480",
      "VideoStreamURL": "https://cctv-ss04.thb.gov.tw:443/T17-260K+800",
      "PositionLon": 120.4977005,
      "PositionLat": 22.4522444,
      "SurveillanceDescription": "台17線260K+800",
      "RoadName": "台17線",
      "CityName": "屏東縣",
      "TownName": "東港鎮",
      "City": "PingtungCounty"
    },
    {
      "CCTVID": "300140092261",
      "VideoStreamURL": "https://cctv-ss04.thb.gov.tw:443/T17-261K+300",
      "PositionLon": 120.50226,
      "PositionLat": 22.449529,
      "SurveillanceDescription": "台17線261K+300",
      "RoadName": "台17線",
      "CityName": "屏東縣",
      "TownName": "東港鎮",
      "City": "PingtungCounty"
    },
    {
      "CCTVID": "300170001936",
      "VideoStreamURL": "https://cctv-ss04.thb.gov.tw:443/T17-261K+600",
      "PositionLon": 120.505117,
      "PositionLat": 22.446233,
      "SurveillanceDescription": "台17線261K+600",
      "RoadName": "台17線",
      "CityName": "屏東縣",
      "TownName": "林邊鄉",
      "City": "PingtungCounty"
    },
    {
      "CCTVID": "300170002097",
      "VideoStreamURL": "https://cctv-ss04.thb.gov.tw:443/T17-264K+800",
      "PositionLon": 120.5262768,
      "PositionLat": 22.4294144,
      "SurveillanceDescription": "台17線264K+800",
      "RoadName": "台17線",
      "CityName": "屏東縣",
      "TownName": "佳冬鄉",
      "City": "PingtungCounty"
    },
    {
      "CCTVID": "300170011772",
      "VideoStreamURL": "https://cctv-ss04.thb.gov.tw:443/T17-265K+800",
      "PositionLon": 120.5334051,
      "PositionLat": 22.4247718,
      "SurveillanceDescription": "台17線265K+800",
      "RoadName": "台17線",
      "CityName": "屏東縣",
      "TownName": "佳冬鄉",
      "City": "PingtungCounty"
    },
    {
      "CCTVID": "300170002355",
      "VideoStreamURL": "https://cctv-ss04.thb.gov.tw:443/T17-266K+600",
      "PositionLon": 120.5430671,
      "PositionLat": 22.4182949,
      "SurveillanceDescription": "台17線266K+800",
      "RoadName": "台17線",
      "CityName": "屏東縣",
      "TownName": "佳冬鄉",
      "City": "PingtungCounty"
    },
    {
      "CCTVID": "300170011849",
      "VideoStreamURL": "https://cctv-ss04.thb.gov.tw:443/T17-267K+800",
      "PositionLon": 120.5511985,
      "PositionLat": 22.4143915,
      "SurveillanceDescription": "台17線267K+800",
      "RoadName": "台17線",
      "CityName": "屏東縣",
      "TownName": "佳冬鄉",
      "City": "PingtungCounty"
    },
    {
      "CCTVID": "300010003707",
      "VideoStreamURL": "https://cctv-ss04.thb.gov.tw:443/T1-394K+950",
      "PositionLon": 120.4672396,
      "PositionLat": 22.6556476,
      "SurveillanceDescription": "台1線394K+950",
      "RoadName": "台1線",
      "CityName": "屏東縣",
      "TownName": "屏東市",
      "City": "PingtungCounty"
    },
    {
      "CCTVID": "300010013610",
      "VideoStreamURL": "https://cctv-ss04.thb.gov.tw:443/T1-397K+000",
      "PositionLon": 120.4868792,
      "PositionLat": 22.6518391,
      "SurveillanceDescription": "台1線397K+000",
      "RoadName": "台1線",
      "CityName": "屏東縣",
      "TownName": "屏東市",
      "City": "PingtungCounty"
    },
    {
      "CCTVID": "300010013022",
      "VideoStreamURL": "https://cctv-ss04.thb.gov.tw:443/T1-399K+700",
      "PositionLon": 120.515345,
      "PositionLat": 22.657626,
      "SurveillanceDescription": "台1線399K+700",
      "RoadName": "台1線",
      "CityName": "屏東縣",
      "TownName": "屏東市",
      "City": "PingtungCounty"
    },
    {
      "CCTVID": "300010013528",
      "VideoStreamURL": "https://cctv-ss04.thb.gov.tw:443/T1-404K+450",
      "PositionLon": 120.544374,
      "PositionLat": 22.6312749,
      "SurveillanceDescription": "台1線404K+450",
      "RoadName": "台1線",
      "CityName": "屏東縣",
      "TownName": "內埔鄉",
      "City": "PingtungCounty"
    },
    {
      "CCTVID": "300010013852",
      "VideoStreamURL": "https://cctv-ss04.thb.gov.tw:443/T1-406K+550",
      "PositionLon": 120.557543,
      "PositionLat": 22.6182231,
      "SurveillanceDescription": "台1線406K+550",
      "RoadName": "台1線",
      "CityName": "屏東縣",
      "TownName": "內埔鄉",
      "City": "PingtungCounty"
    },
    {
      "CCTVID": "300010003568",
      "VideoStreamURL": "https://cctv-ss04.thb.gov.tw:443/T1-420K+500",
      "PositionLon": 120.53107,
      "PositionLat": 22.51501,
      "SurveillanceDescription": "台1線420K+500",
      "RoadName": "台1線",
      "CityName": "屏東縣",
      "TownName": "潮州鎮",
      "City": "PingtungCounty"
    },
    {
      "CCTVID": "300010003858",
      "VideoStreamURL": "https://cctv-ss04.thb.gov.tw:443/T1-423K+300",
      "PositionLon": 120.5387269,
      "PositionLat": 22.492688,
      "SurveillanceDescription": "台1線423K+300",
      "RoadName": "台1線",
      "CityName": "屏東縣",
      "TownName": "南州鄉",
      "City": "PingtungCounty"
    },
    {
      "CCTVID": "300010003331",
      "VideoStreamURL": "https://cctv-ss04.thb.gov.tw:443/T1-429K+050",
      "PositionLon": 120.5605356,
      "PositionLat": 22.444733,
      "SurveillanceDescription": "台1線429K+050",
      "RoadName": "台1線",
      "CityName": "屏東縣",
      "TownName": "佳冬鄉",
      "City": "PingtungCounty"
    },
    {
      "CCTVID": "300220009973",
      "VideoStreamURL": "https://cctv-ss05.thb.gov.tw:443/T22-20K+850",
      "PositionLon": 120.4936185,
      "PositionLat": 22.7732438,
      "SurveillanceDescription": "台22線20K+850",
      "RoadName": "台22線",
      "CityName": "屏東縣",
      "TownName": "里港鄉",
      "City": "PingtungCounty"
    },
    {
      "CCTVID": "300220000095",
      "VideoStreamURL": "https://cctv-ss05.thb.gov.tw:443/T22-25K+600",
      "PositionLon": 120.537705,
      "PositionLat": 22.780838,
      "SurveillanceDescription": "台22線25K+600",
      "RoadName": "台22線",
      "CityName": "屏東縣",
      "TownName": "里港鄉",
      "City": "PingtungCounty"
    },
    {
      "CCTVID": "300220009542",
      "VideoStreamURL": "https://cctv-ss05.thb.gov.tw:443/T22-27K+850",
      "PositionLon": 120.5578826,
      "PositionLat": 22.7848271,
      "SurveillanceDescription": "台22線27K+850",
      "RoadName": "台22線",
      "CityName": "屏東縣",
      "TownName": "高樹鄉",
      "City": "PingtungCounty"
    },
    {
      "CCTVID": "300220009469",
      "VideoStreamURL": "https://cctv-ss05.thb.gov.tw:443/T22-31K+000",
      "PositionLon": 120.5790938,
      "PositionLat": 22.8053537,
      "SurveillanceDescription": "台22線31K+000",
      "RoadName": "台22線",
      "CityName": "屏東縣",
      "TownName": "高樹鄉",
      "City": "PingtungCounty"
    },
    {
      "CCTVID": "300219999717",
      "VideoStreamURL": "https://cctv-ss05.thb.gov.tw:443/T22-34K+300",
      "PositionLon": 120.5995853,
      "PositionLat": 22.8239329,
      "SurveillanceDescription": "台22線34K+300",
      "RoadName": "台22線",
      "CityName": "屏東縣",
      "TownName": "高樹鄉",
      "City": "PingtungCounty"
    },
    {
      "CCTVID": "300239999741",
      "VideoStreamURL": "https://cctv-ss05.thb.gov.tw:443/T24-11K+250",
      "PositionLon": 120.568222,
      "PositionLat": 22.704722,
      "SurveillanceDescription": "台24線11K+250",
      "RoadName": "台24線",
      "CityName": "屏東縣",
      "TownName": "長治鄉",
      "City": "PingtungCounty"
    },
    {
      "CCTVID": "300239999473",
      "VideoStreamURL": "https://cctv-ss05.thb.gov.tw:443/T24-15K+800",
      "PositionLon": 120.6082548,
      "PositionLat": 22.7224573,
      "SurveillanceDescription": "台24線15K+800",
      "RoadName": "台24線",
      "CityName": "屏東縣",
      "TownName": "鹽埔鄉",
      "City": "PingtungCounty"
    },
    {
      "CCTVID": "300239999846",
      "VideoStreamURL": "https://cctv-ss05.thb.gov.tw:443/T24-20K+600",
      "PositionLon": 120.6467811,
      "PositionLat": 22.7138192,
      "SurveillanceDescription": "台24線20K+600",
      "RoadName": "台24線",
      "CityName": "屏東縣",
      "TownName": "三地門鄉",
      "City": "PingtungCounty"
    },
    {
      "CCTVID": "300239999331",
      "VideoStreamURL": "https://cctv-ss05.thb.gov.tw:443/T24-31K+600",
      "PositionLon": 120.70266,
      "PositionLat": 22.74895,
      "SurveillanceDescription": "台24線31K+600",
      "RoadName": "台24線",
      "CityName": "屏東縣",
      "TownName": "三地門鄉",
      "City": "PingtungCounty"
    },
    {
      "CCTVID": "300240000074",
      "VideoStreamURL": "https://cctv-ss05.thb.gov.tw:443/T24-32K+400",
      "PositionLon": 120.708265,
      "PositionLat": 22.746064,
      "SurveillanceDescription": "台24線32K+400",
      "RoadName": "台24線",
      "CityName": "屏東縣",
      "TownName": "霧臺鄉",
      "City": "PingtungCounty"
    },
    {
      "CCTVID": "300239999848",
      "VideoStreamURL": "https://cctv-ss05.thb.gov.tw:443/T24-3K+600",
      "PositionLon": 120.5024661,
      "PositionLat": 22.68117583,
      "SurveillanceDescription": "台24線3K+600",
      "RoadName": "台24線",
      "CityName": "屏東縣",
      "TownName": "屏東市",
      "City": "PingtungCounty"
    },
    {
      "CCTVID": "300240009309",
      "VideoStreamURL": "https://cctv-ss05.thb.gov.tw:443/T24-4K+500",
      "PositionLon": 120.5113785,
      "PositionLat": 22.6841517,
      "SurveillanceDescription": "台24線4K+500",
      "RoadName": "台24線",
      "CityName": "屏東縣",
      "TownName": "長治鄉",
      "City": "PingtungCounty"
    },
    {
      "CCTVID": "300240009780",
      "VideoStreamURL": "https://cctv-ss05.thb.gov.tw:443/T24-9K+350",
      "PositionLon": 120.55429,
      "PositionLat": 22.696007,
      "SurveillanceDescription": "台24線9K+350",
      "RoadName": "台24線",
      "CityName": "屏東縣",
      "TownName": "長治鄉",
      "City": "PingtungCounty"
    },
    {
      "CCTVID": "300270009911",
      "VideoStreamURL": "https://cctv-ss05.thb.gov.tw:443/T27-40K+400",
      "PositionLon": 120.5903937,
      "PositionLat": 22.7716641,
      "SurveillanceDescription": "台27線40K+400",
      "RoadName": "台27線",
      "CityName": "屏東縣",
      "TownName": "高樹鄉",
      "City": "PingtungCounty"
    },
    {
      "CCTVID": "300270010265",
      "VideoStreamURL": "https://cctv-ss05.thb.gov.tw:443/T27-41K+950",
      "PositionLon": 120.580728,
      "PositionLat": 22.760542,
      "SurveillanceDescription": "台27線41K+950",
      "RoadName": "台27線",
      "CityName": "屏東縣",
      "TownName": "鹽埔鄉",
      "City": "PingtungCounty"
    },
    {
      "CCTVID": "300270009910",
      "VideoStreamURL": "https://cctv-ss05.thb.gov.tw:443/T27-56K+450",
      "PositionLon": 120.488965,
      "PositionLat": 22.666762,
      "SurveillanceDescription": "台27線56K+450",
      "RoadName": "台27線",
      "CityName": "屏東縣",
      "TownName": "屏東市",
      "City": "PingtungCounty"
    },
    {
      "CCTVID": "300270010036",
      "VideoStreamURL": "https://cctv-ss05.thb.gov.tw:443/T27-58K+600",
      "PositionLon": 120.485931,
      "PositionLat": 22.650517,
      "SurveillanceDescription": "台27線58K+600",
      "RoadName": "台27線",
      "CityName": "屏東縣",
      "TownName": "屏東市",
      "City": "PingtungCounty"
    },
    {
      "CCTVID": "300270000532",
      "VideoStreamURL": "https://cctv-ss05.thb.gov.tw:443/T27-72k+000",
      "PositionLon": 120.461599,
      "PositionLat": 22.5443858,
      "SurveillanceDescription": "台27線72K+000",
      "RoadName": "台27線",
      "CityName": "屏東縣",
      "TownName": "新園鄉",
      "City": "PingtungCounty"
    },
    {
      "CCTVID": "300270009807",
      "VideoStreamURL": "https://cctv-ss05.thb.gov.tw:443/T27-79K+000",
      "PositionLon": 120.457341,
      "PositionLat": 22.481844,
      "SurveillanceDescription": "台27線79K+000",
      "RoadName": "台27線",
      "CityName": "屏東縣",
      "TownName": "新園鄉",
      "City": "PingtungCounty"
    },
    {
      "CCTVID": "300030003818",
      "VideoStreamURL": "https://cctv-ss05.thb.gov.tw:443/T3-416K+000",
      "PositionLon": 120.5013728,
      "PositionLat": 22.801325,
      "SurveillanceDescription": "台3線416K+000",
      "RoadName": "台3線",
      "CityName": "屏東縣",
      "TownName": "里港鄉",
      "City": "PingtungCounty"
    },
    {
      "CCTVID": "300030004099",
      "VideoStreamURL": "https://cctv-ss05.thb.gov.tw:443/T3-424K+900",
      "PositionLon": 120.488641,
      "PositionLat": 22.725276,
      "SurveillanceDescription": "台3線424K+900",
      "RoadName": "台3線",
      "CityName": "屏東縣",
      "TownName": "九如鄉",
      "City": "PingtungCounty"
    },
    {
      "CCTVID": "300030003968",
      "VideoStreamURL": "https://cctv-ss05.thb.gov.tw:443/T3-426K+800",
      "PositionLon": 120.4880734,
      "PositionLat": 22.707843,
      "SurveillanceDescription": "台3線426K+800",
      "RoadName": "台3線",
      "CityName": "屏東縣",
      "TownName": "九如鄉",
      "City": "PingtungCounty"
    },
    {
      "CCTVID": "300094999458",
      "VideoStreamURL": "https://cctv-ss05.thb.gov.tw:443/T9E-11K+900",
      "PositionLon": 120.835456,
      "PositionLat": 22.2450565,
      "SurveillanceDescription": "台9戊線11K+900",
      "RoadName": "台9戊線",
      "CityName": "屏東縣",
      "TownName": "獅子鄉",
      "City": "PingtungCounty"
    },
    {
      "CCTVID": "300170002261",
      "VideoStreamURL": "https://cctv-ss05.thb.gov.tw:443/T17-272K+300",
      "PositionLon": 120.5879987,
      "PositionLat": 22.3959672,
      "SurveillanceDescription": "台17線272K+300",
      "RoadName": "台17線",
      "CityName": "屏東縣",
      "TownName": "枋寮鄉",
      "City": "PingtungCounty"
    },
    {
      "CCTVID": "300010004107",
      "VideoStreamURL": "https://cctv-ss05.thb.gov.tw:443/T1-446K+010",
      "PositionLon": 120.636631,
      "PositionLat": 22.314135,
      "SurveillanceDescription": "台1線446K+010",
      "RoadName": "台1線",
      "CityName": "屏東縣",
      "TownName": "枋山鄉",
      "City": "PingtungCounty"
    },
    {
      "CCTVID": "300270000171",
      "VideoStreamURL": "https://cctv-ss05.thb.gov.tw:443/T27-68k+050",
      "PositionLon": 120.4815061,
      "PositionLat": 22.5748422,
      "SurveillanceDescription": "台27線68K+300",
      "RoadName": "台27線",
      "CityName": "屏東縣",
      "TownName": "萬丹鄉",
      "City": "PingtungCounty"
    },
    {
      "CCTVID": "300170002599",
      "VideoStreamURL": "https://cctv-ss05.thb.gov.tw:443/T17-269K+000",
      "PositionLon": 120.562157,
      "PositionLat": 22.410492,
      "SurveillanceDescription": "台17線269K+000",
      "RoadName": "台17線",
      "CityName": "屏東縣",
      "TownName": "佳冬鄉",
      "City": "PingtungCounty"
    },
    {
      "CCTVID": "300010014329",
      "VideoStreamURL": "https://cctv-ss05.thb.gov.tw:443/T1-439K+000",
      "PositionLon": 120.6080078,
      "PositionLat": 22.364204,
      "SurveillanceDescription": "台1線439K+000",
      "RoadName": "台1線",
      "CityName": "屏東縣",
      "TownName": "枋寮鄉",
      "City": "PingtungCounty"
    },
    {
      "CCTVID": "300010004389",
      "VideoStreamURL": "https://cctv-ss05.thb.gov.tw:443/T1-444K+400",
      "PositionLon": 120.6205556,
      "PositionLat": 22.32972222,
      "SurveillanceDescription": "台1線444K+400",
      "RoadName": "台1線",
      "CityName": "屏東縣",
      "TownName": "枋山鄉",
      "City": "PingtungCounty"
    },
    {
      "CCTVID": "300010003964",
      "VideoStreamURL": "https://cctv-ss05.thb.gov.tw:443/T1-459K+080",
      "PositionLon": 120.6851304,
      "PositionLat": 22.2111637,
      "SurveillanceDescription": "台1線459K+080",
      "RoadName": "台1線",
      "CityName": "屏東縣",
      "TownName": "枋山鄉",
      "City": "PingtungCounty"
    },
    {
      "CCTVID": "300010004199",
      "VideoStreamURL": "https://cctv-ss05.thb.gov.tw:443/T1-460K+300",
      "PositionLon": 120.690475,
      "PositionLat": 22.196323,
      "SurveillanceDescription": "台1線460K+300",
      "RoadName": "台1線",
      "CityName": "屏東縣",
      "TownName": "枋山鄉",
      "City": "PingtungCounty"
    },
    {
      "CCTVID": "300010003158",
      "VideoStreamURL": "https://cctv-ss05.thb.gov.tw:443/T1-392K+300",
      "PositionLon": 120.447275,
      "PositionLat": 22.649873,
      "SurveillanceDescription": "台1線392K+300",
      "RoadName": "台1線",
      "CityName": "屏東縣",
      "TownName": "屏東市",
      "City": "PingtungCounty"
    },
    {
      "CCTVID": "300240009801",
      "VideoStreamURL": "https://cctv-ss05.thb.gov.tw:443/T24-26K+700",
      "PositionLon": 120.67151,
      "PositionLat": 22.733927,
      "SurveillanceDescription": "台24線26K+700",
      "RoadName": "台24線",
      "CityName": "屏東縣",
      "TownName": "三地門鄉",
      "City": "PingtungCounty"
    },
    {
      "CCTVID": "300260000161",
      "VideoStreamURL": "https://cctv-ss05.thb.gov.tw:443/T26-38K+500",
      "PositionLon": 120.825276,
      "PositionLat": 21.931407,
      "SurveillanceDescription": "台26線38K+500",
      "RoadName": "台26線",
      "CityName": "屏東縣",
      "TownName": "恆春鎮",
      "City": "PingtungCounty"
    },
    {
      "CCTVID": "300170001605",
      "VideoStreamURL": "https://cctv-ss05.thb.gov.tw:443/T17-259K+001",
      "PositionLon": 120.481204,
      "PositionLat": 22.457119,
      "SurveillanceDescription": "台17線259K+001",
      "RoadName": "台17線",
      "CityName": "屏東縣",
      "TownName": "東港鎮",
      "City": "PingtungCounty"
    },
    {
      "CCTVID": "300090003777",
      "VideoStreamURL": "https://cctv-ss05.thb.gov.tw:443/T9-449K+700",
      "PositionLon": 120.7208758,
      "PositionLat": 22.2067451,
      "SurveillanceDescription": "台9線449K+700",
      "RoadName": "台9線",
      "CityName": "屏東縣",
      "TownName": "獅子鄉",
      "City": "PingtungCounty"
    },
    {
      "CCTVID": "300260010239",
      "VideoStreamURL": "https://cctv-ss05.thb.gov.tw:443/T26-36K+070",
      "PositionLon": 120.806504,
      "PositionLat": 21.941043,
      "SurveillanceDescription": "台26線36K+070",
      "RoadName": "台26線",
      "CityName": "屏東縣",
      "TownName": "恆春鎮",
      "City": "PingtungCounty"
    },
    {
      "CCTVID": "300010003651",
      "VideoStreamURL": "https://cctv-ss05.thb.gov.tw:443/T1-430K+650",
      "PositionLon": 120.570694,
      "PositionLat": 22.433924,
      "SurveillanceDescription": "台1線430K+650",
      "RoadName": "台1線",
      "CityName": "屏東縣",
      "TownName": "枋寮鄉",
      "City": "PingtungCounty"
    },
    {
      "CCTVID": "300010013468",
      "VideoStreamURL": "https://cctv-ss05.thb.gov.tw:443/T1-431K+000",
      "PositionLon": 120.573275,
      "PositionLat": 22.431471,
      "SurveillanceDescription": "台1線431K+000",
      "RoadName": "台1線",
      "CityName": "屏東縣",
      "TownName": "枋寮鄉",
      "City": "PingtungCounty"
    },
    {
      "CCTVID": "300010003608",
      "VideoStreamURL": "https://cctv-ss05.thb.gov.tw:443/T1-432K+000",
      "PositionLon": 120.579044,
      "PositionLat": 22.424504,
      "SurveillanceDescription": "台1線432K+000",
      "RoadName": "台1線",
      "CityName": "屏東縣",
      "TownName": "枋寮鄉",
      "City": "PingtungCounty"
    },
    {
      "CCTVID": "300010013949",
      "VideoStreamURL": "https://cctv-ss05.thb.gov.tw:443/T1-436K+390",
      "PositionLon": 120.593932,
      "PositionLat": 22.387768,
      "SurveillanceDescription": "台1線436K+390",
      "RoadName": "台1線",
      "CityName": "屏東縣",
      "TownName": "枋寮鄉",
      "City": "PingtungCounty"
    },
    {
      "CCTVID": "300010004148",
      "VideoStreamURL": "https://cctv-ss05.thb.gov.tw:443/T1-436K+460",
      "PositionLon": 120.594004,
      "PositionLat": 22.387154,
      "SurveillanceDescription": "台1線436K+460",
      "RoadName": "台1線",
      "CityName": "屏東縣",
      "TownName": "枋寮鄉",
      "City": "PingtungCounty"
    },
    {
      "CCTVID": "300010004067",
      "VideoStreamURL": "https://cctv-ss05.thb.gov.tw:443/T1-436K+480",
      "PositionLon": 120.59411,
      "PositionLat": 22.387045,
      "SurveillanceDescription": "台1線436K+480",
      "RoadName": "台1線",
      "CityName": "屏東縣",
      "TownName": "枋寮鄉",
      "City": "PingtungCounty"
    },
    {
      "CCTVID": "300010013628",
      "VideoStreamURL": "https://cctv-ss05.thb.gov.tw:443/T1-436K+700",
      "PositionLon": 120.595032,
      "PositionLat": 22.385146,
      "SurveillanceDescription": "台1線436K+700",
      "RoadName": "台1線",
      "CityName": "屏東縣",
      "TownName": "枋寮鄉",
      "City": "PingtungCounty"
    },
    {
      "CCTVID": "300260000140",
      "VideoStreamURL": "https://cctv-ss05.thb.gov.tw:443/T26-21K+500",
      "PositionLon": 120.7438889,
      "PositionLat": 22.01638889,
      "SurveillanceDescription": "台26線21K+500",
      "RoadName": "台26線",
      "CityName": "屏東縣",
      "TownName": "恆春鎮",
      "City": "PingtungCounty"
    },
    {
      "CCTVID": "300260009974",
      "VideoStreamURL": "https://cctv-ss05.thb.gov.tw:443/T26-34K+820",
      "PositionLon": 120.795995,
      "PositionLat": 21.946107,
      "SurveillanceDescription": "台26線34K+820",
      "RoadName": "台26線",
      "CityName": "屏東縣",
      "TownName": "恆春鎮",
      "City": "PingtungCounty"
    },
    {
      "CCTVID": "300260009399",
      "VideoStreamURL": "https://cctv-ss05.thb.gov.tw:443/T26-35K+135",
      "PositionLon": 120.798833,
      "PositionLat": 21.945167,
      "SurveillanceDescription": "台26線35K+135",
      "RoadName": "台26線",
      "CityName": "屏東縣",
      "TownName": "恆春鎮",
      "City": "PingtungCounty"
    },
    {
      "CCTVID": "300260010295",
      "VideoStreamURL": "https://cctv-ss05.thb.gov.tw:443/T26-35K+250",
      "PositionLon": 120.799887,
      "PositionLat": 21.944831,
      "SurveillanceDescription": "台26線35K+250",
      "RoadName": "台26線",
      "CityName": "屏東縣",
      "TownName": "恆春鎮",
      "City": "PingtungCounty"
    },
    {
      "CCTVID": "300260010141",
      "VideoStreamURL": "https://cctv-ss05.thb.gov.tw:443/T26-35K+420",
      "PositionLon": 120.801683,
      "PositionLat": 21.943449,
      "SurveillanceDescription": "台26線35K+420",
      "RoadName": "台26線",
      "CityName": "屏東縣",
      "TownName": "恆春鎮",
      "City": "PingtungCounty"
    },
    {
      "CCTVID": "674191069146",
      "VideoStreamURL": "https://cctv-ss05.thb.gov.tw:443/T26-35K+600",
      "PositionLon": 120.802457,
      "PositionLat": 21.942904,
      "SurveillanceDescription": "台26線35K+600",
      "RoadName": "大灣路",
      "CityName": "屏東縣",
      "TownName": "恆春鎮",
      "City": "PingtungCounty"
    },
    {
      "CCTVID": "300260009287",
      "VideoStreamURL": "https://cctv-ss05.thb.gov.tw:443/T26-3K+500",
      "PositionLon": 120.692284,
      "PositionLat": 22.182495,
      "SurveillanceDescription": "台26線3K+500",
      "RoadName": "台26線",
      "CityName": "屏東縣",
      "TownName": "枋山鄉",
      "City": "PingtungCounty"
    },
    {
      "CCTVID": "300090004258",
      "VideoStreamURL": "https://cctv-ss05.thb.gov.tw:443/T9-446K+500",
      "PositionLon": 120.744723,
      "PositionLat": 22.203905,
      "SurveillanceDescription": "台9線446K+500",
      "RoadName": "台9線",
      "CityName": "屏東縣",
      "TownName": "獅子鄉",
      "City": "PingtungCounty"
    },
    {
      "CCTVID": "300090004057",
      "VideoStreamURL": "https://cctv-ss05.thb.gov.tw:443/T9-451K+200",
      "PositionLon": 120.7075457,
      "PositionLat": 22.2069267,
      "SurveillanceDescription": "台9線451K+200",
      "RoadName": "台9線",
      "CityName": "屏東縣",
      "TownName": "枋山鄉",
      "City": "PingtungCounty"
    },
    {
      "CCTVID": "300090004231",
      "VideoStreamURL": "https://cctv-ss05.thb.gov.tw:443/T9-452K+500",
      "PositionLon": 120.694022,
      "PositionLat": 22.206795,
      "SurveillanceDescription": "台9線452K+500",
      "RoadName": "台9線",
      "CityName": "屏東縣",
      "TownName": "枋山鄉",
      "City": "PingtungCounty"
    },
    {
      "CCTVID": "300090004178",
      "VideoStreamURL": "https://cctv-ss05.thb.gov.tw:443/T9-435K+113",
      "PositionLon": 120.825829,
      "PositionLat": 22.250814,
      "SurveillanceDescription": "台9線435K+113",
      "RoadName": "台9線",
      "CityName": "屏東縣",
      "TownName": "獅子鄉",
      "City": "PingtungCounty"
    },
    {
      "CCTVID": "300090014242",
      "VideoStreamURL": "https://cctv-ss05.thb.gov.tw:443/T9-435K+181",
      "PositionLon": 120.826086,
      "PositionLat": 22.250535,
      "SurveillanceDescription": "台9線435K+181",
      "RoadName": "台9線",
      "CityName": "屏東縣",
      "TownName": "獅子鄉",
      "City": "PingtungCounty"
    },
    {
      "CCTVID": "300090004111",
      "VideoStreamURL": "https://cctv-ss05.thb.gov.tw:443/T9-436K+504",
      "PositionLon": 120.816516,
      "PositionLat": 22.246007,
      "SurveillanceDescription": "台9線436K+504",
      "RoadName": "台9線",
      "CityName": "屏東縣",
      "TownName": "獅子鄉",
      "City": "PingtungCounty"
    },
    {
      "CCTVID": "300090013943",
      "VideoStreamURL": "https://cctv-ss05.thb.gov.tw:443/T9-436K+579",
      "PositionLon": 120.816774,
      "PositionLat": 22.245769,
      "SurveillanceDescription": "台9線436K+579",
      "RoadName": "台9線",
      "CityName": "屏東縣",
      "TownName": "獅子鄉",
      "City": "PingtungCounty"
    },
    {
      "CCTVID": "300090003690",
      "VideoStreamURL": "https://cctv-ss05.thb.gov.tw:443/T9-437K+344",
      "PositionLon": 120.804082,
      "PositionLat": 22.239791,
      "SurveillanceDescription": "台9線437K+344",
      "RoadName": "台9線",
      "CityName": "屏東縣",
      "TownName": "獅子鄉",
      "City": "PingtungCounty"
    },
    {
      "CCTVID": "300090004284",
      "VideoStreamURL": "https://cctv-ss05.thb.gov.tw:443/T9-437K+490",
      "PositionLon": 120.803948,
      "PositionLat": 22.239453,
      "SurveillanceDescription": "台9線437K+490",
      "RoadName": "台9線",
      "CityName": "屏東縣",
      "TownName": "獅子鄉",
      "City": "PingtungCounty"
    },
    {
      "CCTVID": "300090003435",
      "VideoStreamURL": "https://cctv-ss05.thb.gov.tw:443/T9-437K+588",
      "PositionLon": 120.803822,
      "PositionLat": 22.239124,
      "SurveillanceDescription": "台9線437K+588",
      "RoadName": "台9線",
      "CityName": "屏東縣",
      "TownName": "獅子鄉",
      "City": "PingtungCounty"
    },
    {
      "CCTVID": "300240009976",
      "VideoStreamURL": "https://cctv-ss05.thb.gov.tw:443/T24-20K+950",
      "PositionLon": 120.646268,
      "PositionLat": 22.71549,
      "SurveillanceDescription": "台24線21K+000-1",
      "RoadName": "台24線",
      "CityName": "屏東縣",
      "TownName": "三地門鄉",
      "City": "PingtungCounty"
    },
    {
      "CCTVID": "300170002237",
      "VideoStreamURL": "https://cctv-ss05.thb.gov.tw:443/T17-263K+900",
      "PositionLon": 120.519524,
      "PositionLat": 22.432125,
      "SurveillanceDescription": "台17線263K+900",
      "RoadName": "台17線",
      "CityName": "屏東縣",
      "TownName": "林邊鄉",
      "City": "PingtungCounty"
    },
    {
      "CCTVID": "300010013511",
      "VideoStreamURL": "https://cctv-ss05.thb.gov.tw:443/T1-392K+400",
      "PositionLon": 120.444124,
      "PositionLat": 22.649152,
      "SurveillanceDescription": "台1線392K+400(逆樁)",
      "RoadName": "台1線",
      "CityName": "屏東縣",
      "TownName": "屏東市",
      "City": "PingtungCounty"
    },
    {
      "CCTVID": "675285219994",
      "VideoStreamURL": "https://cctv-ss05.thb.gov.tw:443/T1-392K+600-3",
      "PositionLon": 120.449945,
      "PositionLat": 22.65042,
      "SurveillanceDescription": "台1線392K+600-3",
      "RoadName": "建國路",
      "CityName": "屏東縣",
      "TownName": "屏東市",
      "City": "PingtungCounty"
    },
    {
      "CCTVID": "675285259833",
      "VideoStreamURL": "https://cctv-ss05.thb.gov.tw:443/T1-392K+600-4",
      "PositionLon": 120.450209,
      "PositionLat": 22.650902,
      "SurveillanceDescription": "台1線392K+600-4",
      "RoadName": "建國路",
      "CityName": "屏東縣",
      "TownName": "屏東市",
      "City": "PingtungCounty"
    },
    {
      "CCTVID": "300010013806",
      "VideoStreamURL": "https://cctv-ss05.thb.gov.tw:443/T1-424K+850",
      "PositionLon": 120.5446906,
      "PositionLat": 22.4782498,
      "SurveillanceDescription": "台1線424K+850",
      "RoadName": "台1線",
      "CityName": "屏東縣",
      "TownName": "新埤鄉",
      "City": "PingtungCounty"
    },
    {
      "CCTVID": "300010003642",
      "VideoStreamURL": "https://cctv-ss05.thb.gov.tw:443/T1-433K+010",
      "PositionLon": 120.5842612,
      "PositionLat": 22.4169203,
      "SurveillanceDescription": "台1線433K+010",
      "RoadName": "台1線",
      "CityName": "屏東縣",
      "TownName": "枋寮鄉",
      "City": "PingtungCounty"
    },
    {
      "CCTVID": "300010013593",
      "VideoStreamURL": "https://cctv-ss05.thb.gov.tw:443/T1-456K+100",
      "PositionLon": 120.674515,
      "PositionLat": 22.230309,
      "SurveillanceDescription": "台1線456K+100",
      "RoadName": "台1線",
      "CityName": "屏東縣",
      "TownName": "枋山鄉",
      "City": "PingtungCounty"
    },
    {
      "CCTVID": "300240009326",
      "VideoStreamURL": "https://cctv-ss05.thb.gov.tw:443/T24-19K+450",
      "PositionLon": 120.637422,
      "PositionLat": 22.709962,
      "SurveillanceDescription": "台24線19K+450",
      "RoadName": "台24線",
      "CityName": "屏東縣",
      "TownName": "內埔鄉",
      "City": "PingtungCounty"
    },
    {
      "CCTVID": "300240009865",
      "VideoStreamURL": "https://cctv-ss05.thb.gov.tw:443/T24-37K+300",
      "PositionLon": 120.725821,
      "PositionLat": 22.7519524,
      "SurveillanceDescription": "台24線37K+300",
      "RoadName": "台24線",
      "CityName": "屏東縣",
      "TownName": "霧臺鄉",
      "City": "PingtungCounty"
    },
    {
      "CCTVID": "300260009385",
      "VideoStreamURL": "https://cctv-ss05.thb.gov.tw:443/T26-18K+020N",
      "PositionLon": 120.717351,
      "PositionLat": 22.059584,
      "SurveillanceDescription": "台26線18K+020北",
      "RoadName": "台26線",
      "CityName": "屏東縣",
      "TownName": "車城鄉",
      "City": "PingtungCounty"
    },
    {
      "CCTVID": "300259999293",
      "VideoStreamURL": "https://cctv-ss05.thb.gov.tw:443/T26-18K+020S",
      "PositionLon": 120.717351,
      "PositionLat": 22.059123,
      "SurveillanceDescription": "台26線18K+020南",
      "RoadName": "台26線",
      "CityName": "屏東縣",
      "TownName": "車城鄉",
      "City": "PingtungCounty"
    },
    {
      "CCTVID": "300030013696",
      "VideoStreamURL": "https://cctv-ss05.thb.gov.tw:443/T3-428K+000",
      "PositionLon": 120.489662,
      "PositionLat": 22.706115,
      "SurveillanceDescription": "台3線428K+000",
      "RoadName": "台3線",
      "CityName": "屏東縣",
      "TownName": "屏東市",
      "City": "PingtungCounty"
    },
    {
      "CCTVID": "300030014223",
      "VideoStreamURL": "https://cctv-ss05.thb.gov.tw:443/T3-434K+600",
      "PositionLon": 120.478403,
      "PositionLat": 22.671464,
      "SurveillanceDescription": "台3線434K+600",
      "RoadName": "台3線",
      "CityName": "屏東縣",
      "TownName": "屏東市",
      "City": "PingtungCounty"
    },
    {
      "CCTVID": "300094999926",
      "VideoStreamURL": "https://cctv-ss05.thb.gov.tw:443/T9E-15K+700",
      "PositionLon": 120.807362,
      "PositionLat": 22.238694,
      "SurveillanceDescription": "台9戊線15K+700",
      "RoadName": "台9戊線",
      "CityName": "屏東縣",
      "TownName": "獅子鄉",
      "City": "PingtungCounty"
    },
    {
      "CCTVID": "300090003802",
      "VideoStreamURL": "https://cctv-ss05.thb.gov.tw:443/T9-438K+200-1",
      "PositionLon": 120.801915,
      "PositionLat": 22.234223,
      "SurveillanceDescription": "台9線438K+200-1",
      "RoadName": "台9線",
      "CityName": "屏東縣",
      "TownName": "獅子鄉",
      "City": "PingtungCounty"
    },
    {
      "CCTVID": "300090003476",
      "VideoStreamURL": "https://cctv-ss05.thb.gov.tw:443/T9-438K+200-2",
      "PositionLon": 120.8017778,
      "PositionLat": 22.2341572,
      "SurveillanceDescription": "台9線438K+200-2",
      "RoadName": "台9線",
      "CityName": "屏東縣",
      "TownName": "獅子鄉",
      "City": "PingtungCounty"
    },
    {
      "CCTVID": "300090013907",
      "VideoStreamURL": "https://cctv-ss05.thb.gov.tw:443/T9-438K+600-1",
      "PositionLon": 120.8005814,
      "PositionLat": 22.2313311,
      "SurveillanceDescription": "台9線438K+600-1",
      "RoadName": "台9線",
      "CityName": "屏東縣",
      "TownName": "獅子鄉",
      "City": "PingtungCounty"
    },
    {
      "CCTVID": "300090013659",
      "VideoStreamURL": "https://cctv-ss05.thb.gov.tw:443/T9-438K+600-2",
      "PositionLon": 120.800638,
      "PositionLat": 22.231309,
      "SurveillanceDescription": "台9線438K+600-2",
      "RoadName": "台9線",
      "CityName": "屏東縣",
      "TownName": "獅子鄉",
      "City": "PingtungCounty"
    },
    {
      "CCTVID": "300090003719",
      "VideoStreamURL": "https://cctv-ss05.thb.gov.tw:443/T9-438K+600-3",
      "PositionLon": 120.801136,
      "PositionLat": 22.232778,
      "SurveillanceDescription": "台9線438K+600-3",
      "RoadName": "台9線",
      "CityName": "屏東縣",
      "TownName": "獅子鄉",
      "City": "PingtungCounty"
    },
    {
      "CCTVID": "300090004205",
      "VideoStreamURL": "https://cctv-ss05.thb.gov.tw:443/T9-439K+800",
      "PositionLon": 120.795324,
      "PositionLat": 22.221693,
      "SurveillanceDescription": "台9線439K+800",
      "RoadName": "台9線",
      "CityName": "屏東縣",
      "TownName": "獅子鄉",
      "City": "PingtungCounty"
    },
    {
      "CCTVID": "300090003743",
      "VideoStreamURL": "https://cctv-ss05.thb.gov.tw:443/T9-440K+300",
      "PositionLon": 120.7939856,
      "PositionLat": 22.2193317,
      "SurveillanceDescription": "台9線440K+300",
      "RoadName": "台9線",
      "CityName": "屏東縣",
      "TownName": "獅子鄉",
      "City": "PingtungCounty"
    },
    {
      "CCTVID": "300090014123",
      "VideoStreamURL": "https://cctv-ss05.thb.gov.tw:443/T9-443K+100",
      "PositionLon": 120.773141,
      "PositionLat": 22.216054,
      "SurveillanceDescription": "台9線443K+100",
      "RoadName": "台9線",
      "CityName": "屏東縣",
      "TownName": "獅子鄉",
      "City": "PingtungCounty"
    },
    {
      "CCTVID": "674436059333",
      "VideoStreamURL": "https://cctv-ss05.thb.gov.tw:443/T9-446K+000",
      "PositionLon": 120.749878,
      "PositionLat": 22.205149,
      "SurveillanceDescription": "台9線446K+000",
      "RoadName": "巴士巷",
      "CityName": "屏東縣",
      "TownName": "獅子鄉",
      "City": "PingtungCounty"
    },
    {
      "CCTVID": "674436059748",
      "VideoStreamURL": "https://cctv-ss05.thb.gov.tw:443/T9-446K+100",
      "PositionLon": 120.7481454,
      "PositionLat": 22.204238,
      "SurveillanceDescription": "台9線446K+100",
      "RoadName": "巴士巷",
      "CityName": "屏東縣",
      "TownName": "獅子鄉",
      "City": "PingtungCounty"
    },
    {
      "CCTVID": "300090003540",
      "VideoStreamURL": "https://cctv-ss05.thb.gov.tw:443/T9-450K+900",
      "PositionLon": 120.7103301,
      "PositionLat": 22.2074229,
      "SurveillanceDescription": "台9線450K+900",
      "RoadName": "台9線",
      "CityName": "屏東縣",
      "TownName": "枋山鄉",
      "City": "PingtungCounty"
    },
    {
      "CCTVID": "300090004186",
      "VideoStreamURL": "https://cctv-ss05.thb.gov.tw:443/T9-452K+300",
      "PositionLon": 120.6973658,
      "PositionLat": 22.2078468,
      "SurveillanceDescription": "台9線452K+300",
      "RoadName": "台9線",
      "CityName": "屏東縣",
      "TownName": "枋山鄉",
      "City": "PingtungCounty"
    },
    {
      "CCTVID": "300090003565",
      "VideoStreamURL": "https://cctv-ss05.thb.gov.tw:443/T9-453K+000",
      "PositionLon": 120.6880262,
      "PositionLat": 22.20542,
      "SurveillanceDescription": "台9線453K+000",
      "RoadName": "台9線",
      "CityName": "屏東縣",
      "TownName": "枋山鄉",
      "City": "PingtungCounty"
    },
    {
      "CCTVID": "300170002251",
      "VideoStreamURL": "https://cctv-ss05.thb.gov.tw:443/T17-266K+900",
      "PositionLon": 120.543663,
      "PositionLat": 22.417891,
      "SurveillanceDescription": "台17線266K+900",
      "RoadName": "台17線",
      "CityName": "屏東縣",
      "TownName": "佳冬鄉",
      "City": "PingtungCounty"
    },
    {
      "CCTVID": "300010013688",
      "VideoStreamURL": "https://cctv-ss05.thb.gov.tw:443/T1-392K+310",
      "PositionLon": 120.447356,
      "PositionLat": 22.649973,
      "SurveillanceDescription": "台1線392K+310",
      "RoadName": "台1線",
      "CityName": "屏東縣",
      "TownName": "屏東市",
      "City": "PingtungCounty"
    },
    {
      "CCTVID": "300239999650",
      "VideoStreamURL": "https://cctv-ss05.thb.gov.tw:443/T24-19K+900",
      "PositionLon": 120.64185,
      "PositionLat": 22.70996302,
      "SurveillanceDescription": "台24線19K+900",
      "RoadName": "台24線",
      "CityName": "屏東縣",
      "TownName": "內埔鄉",
      "City": "PingtungCounty"
    },
    {
      "CCTVID": "300240009317",
      "VideoStreamURL": "https://cctv-ss05.thb.gov.tw:443/T24-21K+050",
      "PositionLon": 120.646431,
      "PositionLat": 22.715546,
      "SurveillanceDescription": "台24線21K+050",
      "RoadName": "台24線",
      "CityName": "屏東縣",
      "TownName": "三地門鄉",
      "City": "PingtungCounty"
    },
    {
      "CCTVID": "300260009709",
      "VideoStreamURL": "https://cctv-ss05.thb.gov.tw:443/T26-29K+450",
      "PositionLon": 120.756372,
      "PositionLat": 21.969422,
      "SurveillanceDescription": "台26線29K+450",
      "RoadName": "台26線",
      "CityName": "屏東縣",
      "TownName": "恆春鎮",
      "City": "PingtungCounty"
    },
    {
      "CCTVID": "300260000173",
      "VideoStreamURL": "https://cctv-ss05.thb.gov.tw:443/T26-42K+700",
      "PositionLon": 120.849513,
      "PositionLat": 21.906997,
      "SurveillanceDescription": "台26線42K+700",
      "RoadName": "台26線",
      "CityName": "屏東縣",
      "TownName": "恆春鎮",
      "City": "PingtungCounty"
    },
    {
      "CCTVID": "300170002026",
      "VideoStreamURL": "https://cctv-ss05.thb.gov.tw:443/T17-262K+200",
      "PositionLon": 120.5080556,
      "PositionLat": 22.44222222,
      "SurveillanceDescription": "台17線262K+200",
      "RoadName": "台17線",
      "CityName": "屏東縣",
      "TownName": "林邊鄉",
      "City": "PingtungCounty"
    },
    {
      "CCTVID": "300010004126",
      "VideoStreamURL": "https://cctv-ss05.thb.gov.tw:443/T1-424K+050",
      "PositionLon": 120.5391667,
      "PositionLat": 22.49055556,
      "SurveillanceDescription": "台1線424K+050",
      "RoadName": "台1線",
      "CityName": "屏東縣",
      "TownName": "南州鄉",
      "City": "PingtungCounty"
    },
    {
      "CCTVID": "300010014000",
      "VideoStreamURL": "https://cctv-ss06.thb.gov.tw:443/T1-438K+150",
      "PositionLon": 120.601757,
      "PositionLat": 22.374317,
      "SurveillanceDescription": "台1線438K+150",
      "RoadName": "台1線",
      "CityName": "屏東縣",
      "TownName": "枋寮鄉",
      "City": "PingtungCounty"
    },
    {
      "CCTVID": "300010004218",
      "VideoStreamURL": "https://cctv-ss06.thb.gov.tw:443/T1-453K+300",
      "PositionLon": 120.6536111,
      "PositionLat": 22.25694444,
      "SurveillanceDescription": "台1線453K+300",
      "RoadName": "台1線",
      "CityName": "屏東縣",
      "TownName": "枋山鄉",
      "City": "PingtungCounty"
    },
    {
      "CCTVID": "300260009353",
      "VideoStreamURL": "https://cctv-ss06.thb.gov.tw:443/T26-2K+600",
      "PositionLon": 120.692024,
      "PositionLat": 22.193027,
      "SurveillanceDescription": "台26線2K+600",
      "RoadName": "台26線",
      "CityName": "屏東縣",
      "TownName": "枋山鄉",
      "City": "PingtungCounty"
    },
    {
      "CCTVID": "300260009979",
      "VideoStreamURL": "https://cctv-ss06.thb.gov.tw:443/T26-31K+100",
      "PositionLon": 120.7672222,
      "PositionLat": 21.95805556,
      "SurveillanceDescription": "台26線31K+100",
      "RoadName": "台26線",
      "CityName": "屏東縣",
      "TownName": "恆春鎮",
      "City": "PingtungCounty"
    },
    {
      "CCTVID": "300094999638",
      "VideoStreamURL": "https://cctv-ss03.thb.gov.tw:443/T9E-14K+400",
      "PositionLon": 120.8148005,
      "PositionLat": 22.2436467,
      "SurveillanceDescription": "台9戊線14K+400",
      "RoadName": "台9戊線",
      "CityName": "屏東縣",
      "TownName": "獅子鄉",
      "City": "PingtungCounty"
    },
    {
      "CCTVID": "300170012062",
      "VideoStreamURL": "https://cctv-ss06.thb.gov.tw:443/T17-254K+997",
      "PositionLon": 120.457234,
      "PositionLat": 22.479869,
      "SurveillanceDescription": "台17線254K+997",
      "RoadName": "台17線",
      "CityName": "屏東縣",
      "TownName": "新園鄉",
      "City": "PingtungCounty"
    },
    {
      "CCTVID": "300170001640",
      "VideoStreamURL": "https://cctv-ss04.thb.gov.tw:443/T17-258K+449",
      "PositionLon": 120.479467,
      "PositionLat": 22.457661,
      "SurveillanceDescription": "台17線258K+449",
      "RoadName": "台17線",
      "CityName": "屏東縣",
      "TownName": "東港鎮",
      "City": "PingtungCounty"
    },
    {
      "CCTVID": "300170002577",
      "VideoStreamURL": "https://cctv-ss06.thb.gov.tw:443/T17-259K+502",
      "PositionLon": 120.496497,
      "PositionLat": 22.452504,
      "SurveillanceDescription": "台17線259K+502",
      "RoadName": "台17線",
      "CityName": "屏東縣",
      "TownName": "東港鎮",
      "City": "PingtungCounty"
    },
    {
      "CCTVID": "300170002513",
      "VideoStreamURL": "https://cctv-ss06.thb.gov.tw:443/T17-263K+500",
      "PositionLon": 120.515715,
      "PositionLat": 22.433798,
      "SurveillanceDescription": "台17線263K+500",
      "RoadName": "台17線",
      "CityName": "屏東縣",
      "TownName": "林邊鄉",
      "City": "PingtungCounty"
    },
    {
      "CCTVID": "300090004310",
      "VideoStreamURL": "https://cctv-ss06.thb.gov.tw:443/T9-449K+050",
      "PositionLon": 120.726282,
      "PositionLat": 22.209279,
      "SurveillanceDescription": "台9線449K+050",
      "RoadName": "台9線",
      "CityName": "屏東縣",
      "TownName": "獅子鄉",
      "City": "PingtungCounty"
    },
    {
      "CCTVID": "300270010143",
      "VideoStreamURL": "https://cctv-ss06.thb.gov.tw:443/T27-36K+200",
      "PositionLon": 120.611108,
      "PositionLat": 22.795488,
      "SurveillanceDescription": "台27線36K+200",
      "RoadName": "台27線",
      "CityName": "屏東縣",
      "TownName": "高樹鄉",
      "City": "PingtungCounty"
    },
    {
      "CCTVID": "300094999838",
      "VideoStreamURL": "https://cctv-ss06.thb.gov.tw:443/T9E-15K+250",
      "PositionLon": 120.8111903,
      "PositionLat": 22.242363,
      "SurveillanceDescription": "台9戊線15K+250",
      "RoadName": "台9戊線",
      "CityName": "屏東縣",
      "TownName": "獅子鄉",
      "City": "PingtungCounty"
    },
    {
      "CCTVID": "300010013455",
      "VideoStreamURL": "https://cctv-ss06.thb.gov.tw:443/T1-412K+500",
      "PositionLon": 120.545108,
      "PositionLat": 22.566505,
      "SurveillanceDescription": "台1線412K+850",
      "RoadName": "台1線",
      "CityName": "屏東縣",
      "TownName": "萬巒鄉",
      "City": "PingtungCounty"
    },
    {
      "CCTVID": "300010013505",
      "VideoStreamURL": "https://cctv-ss06.thb.gov.tw:443/T1-447K+800",
      "PositionLon": 120.643829,
      "PositionLat": 22.300358,
      "SurveillanceDescription": "台1線447K+800",
      "RoadName": "台1線",
      "CityName": "屏東縣",
      "TownName": "枋山鄉",
      "City": "PingtungCounty"
    },
    {
      "CCTVID": "300260009625",
      "VideoStreamURL": "https://cctv-ss06.thb.gov.tw:443/T26-47K+900",
      "PositionLon": 120.841212,
      "PositionLat": 21.9383685,
      "SurveillanceDescription": "台26線47K+900",
      "RoadName": "台26線",
      "CityName": "屏東縣",
      "TownName": "恆春鎮",
      "City": "PingtungCounty"
    },
    {
      "CCTVID": "300259999969",
      "VideoStreamURL": "https://cctv-ss06.thb.gov.tw:443/T26-51K+800",
      "PositionLon": 120.8428629,
      "PositionLat": 21.9687818,
      "SurveillanceDescription": "台26線51K+800",
      "RoadName": "台26線",
      "CityName": "屏東縣",
      "TownName": "恆春鎮",
      "City": "PingtungCounty"
    },
    {
      "CCTVID": "300259999074",
      "VideoStreamURL": "https://cctv-ss06.thb.gov.tw:443/T26-6K+900",
      "PositionLon": 120.700119,
      "PositionLat": 22.152932,
      "SurveillanceDescription": "台26線6K+900",
      "RoadName": "台26線",
      "CityName": "屏東縣",
      "TownName": "枋山鄉",
      "City": "PingtungCounty"
    },
    {
      "CCTVID": "300260009850",
      "VideoStreamURL": "https://cctv-ss06.thb.gov.tw:443/T26-71K+000",
      "PositionLon": 120.879254,
      "PositionLat": 22.13204,
      "SurveillanceDescription": "台26線71K+000",
      "RoadName": "台26線",
      "CityName": "屏東縣",
      "TownName": "滿州鄉",
      "City": "PingtungCounty"
    },
    {
      "CCTVID": "300259999844",
      "VideoStreamURL": "https://cctv-ss06.thb.gov.tw:443/T26-72K+700",
      "PositionLon": 120.891396,
      "PositionLat": 22.138008,
      "SurveillanceDescription": "台26線72K+700",
      "RoadName": "台26線",
      "CityName": "屏東縣",
      "TownName": "滿州鄉",
      "City": "PingtungCounty"
    },
    {
      "CCTVID": "300260010791",
      "VideoStreamURL": "https://cctv-ss06.thb.gov.tw:443/T26-80K+000",
      "PositionLon": 120.8880894,
      "PositionLat": 22.1941667,
      "SurveillanceDescription": "台26線80K+000",
      "RoadName": "台26線",
      "CityName": "屏東縣",
      "TownName": "牡丹鄉",
      "City": "PingtungCounty"
    },
    {
      "CCTVID": "300170001659",
      "VideoStreamURL": "https://cctv-ss06.thb.gov.tw:443/T17-259K+100",
      "PositionLon": 120.483595,
      "PositionLat": 22.456298,
      "SurveillanceDescription": "台17線259K+100",
      "RoadName": "台17線",
      "CityName": "屏東縣",
      "TownName": "東港鎮",
      "City": "PingtungCounty"
    },
    {
      "CCTVID": "300010013800",
      "VideoStreamURL": "https://cctv-ss06.thb.gov.tw:443/T1-441K+700",
      "PositionLon": 120.60987,
      "PositionLat": 22.346063,
      "SurveillanceDescription": "台1線441K+700",
      "RoadName": "台1線",
      "CityName": "屏東縣",
      "TownName": "枋寮鄉",
      "City": "PingtungCounty"
    },
    {
      "CCTVID": "300090004025",
      "VideoStreamURL": "https://cctv-ss04.thb.gov.tw:443/T9-453K+300",
      "PositionLon": 120.68786,
      "PositionLat": 22.20553,
      "SurveillanceDescription": "台9線453K+300",
      "RoadName": "台9線",
      "CityName": "屏東縣",
      "TownName": "枋山鄉",
      "City": "PingtungCounty"
    },
    {
      "CCTVID": "300094999448",
      "VideoStreamURL": "https://cctv-ss04.thb.gov.tw:443/T9E-16k+100",
      "PositionLon": 120.80456,
      "PositionLat": 22.23863,
      "SurveillanceDescription": "台9戊線16K+100",
      "RoadName": "台9戊線",
      "CityName": "屏東縣",
      "TownName": "獅子鄉",
      "City": "PingtungCounty"
    },
    {
      "CCTVID": "300090014395",
      "VideoStreamURL": "https://cctv-ss05.thb.gov.tw:443/T9-44K+500",
      "PositionLon": 120.7523676,
      "PositionLat": 22.2085761,
      "SurveillanceDescription": "台9線445K+500",
      "RoadName": "台9線",
      "CityName": "屏東縣",
      "TownName": "獅子鄉",
      "City": "PingtungCounty"
    },
    {
      "CCTVID": "300260009401",
      "VideoStreamURL": "https://cctv-ss05.thb.gov.tw:443/T26-34K+820-1",
      "PositionLon": 120.7961741,
      "PositionLat": 21.9461112,
      "SurveillanceDescription": "台26線35K+550",
      "RoadName": "台26線",
      "CityName": "屏東縣",
      "TownName": "恆春鎮",
      "City": "PingtungCounty"
    },
    {
      "CCTVID": "300170002339",
      "VideoStreamURL": "https://cctv-ss04.thb.gov.tw:443/T17-250K+870",
      "PositionLon": 120.440005,
      "PositionLat": 22.497972,
      "SurveillanceDescription": "台17線250K+870",
      "RoadName": "台17線",
      "CityName": "屏東縣",
      "TownName": "新園鄉",
      "City": "PingtungCounty"
    },
    {
      "CCTVID": "300090003535",
      "VideoStreamURL": "https://cctv-ss05.thb.gov.tw:443/T9-437K+588-2",
      "PositionLon": 120.8037984,
      "PositionLat": 22.238869,
      "SurveillanceDescription": "台9線437K+588-2",
      "RoadName": "台9線",
      "CityName": "屏東縣",
      "TownName": "獅子鄉",
      "City": "PingtungCounty"
    },
    {
      "CCTVID": "300090013439",
      "VideoStreamURL": "https://cctv-ss07.thb.gov.tw:443/T9-437K+588",
      "PositionLon": 120.8039512,
      "PositionLat": 22.2388648,
      "SurveillanceDescription": "草埔隧道北上南端口",
      "RoadName": "台9線",
      "CityName": "屏東縣",
      "TownName": "獅子鄉",
      "City": "PingtungCounty"
    }
  ]
}