{
  "UpdateTime": "2023-08-30T00:22:26+08:00",
  "UpdateInterval": 21600,
  "SrcUpdateTime": "2023-08-30T00:00:00+08:00",
  "SrcUpdateInterval": 86400,
  "AuthorityCode": "TNN",
  "CCTVs": [
    {
      "CCTVID": "C010020",
      "LinkID": "6150770600070D",
      "VideoStreamURL": "https://trafficvideo2.tainan.gov.tw/192168234005",
      "LocationType": 1,
      "PositionLon": 120.16088,
      "PositionLat": 23.00284,
      "SurveillanceType": 1,
      "SurveillanceDescription": "",
      "RoadID": "615077D",
      "RoadName": "安北路",
      "RoadClass": 6,
      "RoadDirection": "W",
      "RoadSection": {
        "Start": "",
        "End": ""
      },
      "LocationMile": "",
      "LayoutMapURL": ""
    },
    {
      "CCTVID": "C058330",
      "LinkID": "6154600700010D",
      "VideoStreamURL": "https://trafficvideo.tainan.gov.tw/17dcd3fb",
      "LocationType": 1,
      "PositionLon": 120.22304,
      "PositionLat": 22.9853,
      "SurveillanceType": 1,
      "SurveillanceDescription": "",
      "RoadID": "615460D",
      "RoadName": "東門路二段",
      "RoadClass": 6,
      "RoadDirection": "NW",
      "RoadSection": {
        "Start": "",
        "End": ""
      },
      "LocationMile": "",
      "LayoutMapURL": ""
    },
    {
      "CCTVID": "C071640",
      "LinkID": "6151220400010D",
      "VideoStreamURL": "https://trafficvideo2.tainan.gov.tw/192168234004",
      "LocationType": 1,
      "PositionLon": 120.16363,
      "PositionLat": 22.99704,
      "SurveillanceType": 1,
      "SurveillanceDescription": "",
      "RoadID": "615122D",
      "RoadName": "安億路",
      "RoadClass": 6,
      "RoadDirection": "S",
      "RoadSection": {
        "Start": "",
        "End": ""
      },
      "LocationMile": "",
      "LayoutMapURL": ""
    },
    {
      "CCTVID": "C088570",
      "LinkID": "6150770600100D",
      "VideoStreamURL": "https://trafficvideo2.tainan.gov.tw/192168234006",
      "LocationType": 1,
      "PositionLon": 120.16811,
      "PositionLat": 22.99902,
      "SurveillanceType": 1,
      "SurveillanceDescription": "",
      "RoadID": "615077D",
      "RoadName": "安北路",
      "RoadClass": 6,
      "RoadDirection": "W",
      "RoadSection": {
        "Start": "",
        "End": ""
      },
      "LocationMile": "",
      "LayoutMapURL": ""
    },
    {
      "CCTVID": "C088630",
      "LinkID": "6146860700000D",
      "VideoStreamURL": "https://trafficvideo2.tainan.gov.tw/192168234001",
      "LocationType": 1,
      "PositionLon": 120.15734,
      "PositionLat": 23.00339,
      "SurveillanceType": 1,
      "SurveillanceDescription": "",
      "RoadID": "614686D",
      "RoadName": "王城路",
      "RoadClass": 6,
      "RoadDirection": "NW",
      "RoadSection": {
        "Start": "",
        "End": ""
      },
      "LocationMile": "",
      "LayoutMapURL": ""
    },
    {
      "CCTVID": "C098800",
      "LinkID": "6163110000040D",
      "VideoStreamURL": "https://trafficvideo2.tainan.gov.tw/17bb0240",
      "LocationType": 1,
      "PositionLon": 120.281,
      "PositionLat": 23.0644,
      "SurveillanceType": -1,
      "SurveillanceDescription": "",
      "RoadID": "616311D",
      "RoadName": "新港社大道",
      "RoadClass": 6,
      "RoadDirection": "N",
      "RoadSection": {
        "Start": "",
        "End": ""
      },
      "LocationMile": "",
      "LayoutMapURL": ""
    },
    {
      "CCTVID": "C110001",
      "LinkID": "6158940200040D",
      "VideoStreamURL": "https://trafficvideo2.tainan.gov.tw/539b8083",
      "LocationType": 1,
      "PositionLon": 120.20381,
      "PositionLat": 22.98134,
      "SurveillanceType": 1,
      "SurveillanceDescription": "",
      "RoadID": "615894D",
      "RoadName": "健康路一段",
      "RoadClass": 6,
      "RoadDirection": "E",
      "RoadSection": {
        "Start": "",
        "End": ""
      },
      "LocationMile": "",
      "LayoutMapURL": ""
    },
    {
      "CCTVID": "C110002",
      "LinkID": "6156830000020D",
      "VideoStreamURL": "https://trafficvideo.tainan.gov.tw/ef80a475",
      "LocationType": 1,
      "PositionLon": 120.20371,
      "PositionLat": 22.98124,
      "SurveillanceType": -1,
      "SurveillanceDescription": "",
      "RoadID": "615683D",
      "RoadName": "南門路",
      "RoadClass": 6,
      "RoadDirection": "N",
      "RoadSection": {
        "Start": "",
        "End": ""
      },
      "LocationMile": "",
      "LayoutMapURL": ""
    },
    {
      "CCTVID": "C110003",
      "LinkID": "6154842700030D",
      "VideoStreamURL": "https://trafficvideo2.tainan.gov.tw/a0c6236b",
      "LocationType": 1,
      "PositionLon": 120.2132,
      "PositionLat": 22.99439,
      "SurveillanceType": -1,
      "SurveillanceDescription": "",
      "RoadID": "615484D",
      "RoadName": "東寧路西段",
      "RoadClass": 6,
      "RoadDirection": "NW",
      "RoadSection": {
        "Start": "",
        "End": ""
      },
      "LocationMile": "",
      "LayoutMapURL": ""
    },
    {
      "CCTVID": "C110004",
      "LinkID": "6162130700010D",
      "VideoStreamURL": "https://trafficvideo2.tainan.gov.tw/54b2e135",
      "LocationType": 1,
      "PositionLon": 120.21116,
      "PositionLat": 22.98479,
      "SurveillanceType": -1,
      "SurveillanceDescription": "",
      "RoadID": "616213D",
      "RoadName": "開山路",
      "RoadClass": 6,
      "RoadDirection": "NW",
      "RoadSection": {
        "Start": "",
        "End": ""
      },
      "LocationMile": "",
      "LayoutMapURL": ""
    },
    {
      "CCTVID": "C110005",
      "LinkID": "6154060400040D",
      "VideoStreamURL": "https://trafficvideo2.tainan.gov.tw/82520774",
      "LocationType": 1,
      "PositionLon": 120.2027,
      "PositionLat": 22.99168,
      "SurveillanceType": -1,
      "SurveillanceDescription": "",
      "RoadID": "615406D",
      "RoadName": "忠義路二段",
      "RoadClass": 6,
      "RoadDirection": "S",
      "RoadSection": {
        "Start": "",
        "End": ""
      },
      "LocationMile": "",
      "LayoutMapURL": ""
    },
    {
      "CCTVID": "C110006",
      "LinkID": "3001700017579D",
      "VideoStreamURL": "https://trafficvideo.tainan.gov.tw/c465bf94",
      "LocationType": 1,
      "PositionLon": 120.18641,
      "PositionLat": 22.99639,
      "SurveillanceType": -1,
      "SurveillanceDescription": "",
      "RoadID": "300170",
      "RoadName": "台17線",
      "RoadClass": 3,
      "RoadDirection": "S",
      "RoadSection": {
        "Start": "",
        "End": ""
      },
      "LocationMile": "",
      "LayoutMapURL": ""
    },
    {
      "CCTVID": "C110007",
      "LinkID": "6153590600020D",
      "VideoStreamURL": "https://trafficvideo.tainan.gov.tw/6a0feb9b",
      "LocationType": 1,
      "PositionLon": 120.18706,
      "PositionLat": 22.99263,
      "SurveillanceType": -1,
      "SurveillanceDescription": "",
      "RoadID": "615359D",
      "RoadName": "府前路二段",
      "RoadClass": 6,
      "RoadDirection": "W",
      "RoadSection": {
        "Start": "",
        "End": ""
      },
      "LocationMile": "",
      "LayoutMapURL": ""
    },
    {
      "CCTVID": "C110008",
      "LinkID": "3000100132663D",
      "VideoStreamURL": "https://trafficvideo2.tainan.gov.tw/b7b89f55",
      "LocationType": 1,
      "PositionLon": 120.24651,
      "PositionLat": 23.04144,
      "SurveillanceType": -1,
      "SurveillanceDescription": "",
      "RoadID": "300010",
      "RoadName": "台1線",
      "RoadClass": 3,
      "RoadDirection": "N",
      "RoadSection": {
        "Start": "",
        "End": ""
      },
      "LocationMile": "",
      "LayoutMapURL": ""
    },
    {
      "CCTVID": "C110009",
      "LinkID": "3001900013991D",
      "VideoStreamURL": "https://trafficvideo2.tainan.gov.tw/05c68597",
      "LocationType": 1,
      "PositionLon": 120.21797,
      "PositionLat": 23.02341,
      "SurveillanceType": -1,
      "SurveillanceDescription": "",
      "RoadID": "300190",
      "RoadName": "台19線",
      "RoadClass": 3,
      "RoadDirection": "S",
      "RoadSection": {
        "Start": "",
        "End": ""
      },
      "LocationMile": "",
      "LayoutMapURL": ""
    },
    {
      "CCTVID": "C110010",
      "LinkID": "3000100033072D",
      "VideoStreamURL": "https://trafficvideo2.tainan.gov.tw/a430e931",
      "LocationType": 1,
      "PositionLon": 120.2186,
      "PositionLat": 23.02333,
      "SurveillanceType": -1,
      "SurveillanceDescription": "",
      "RoadID": "300010",
      "RoadName": "台1線",
      "RoadClass": 3,
      "RoadDirection": "S",
      "RoadSection": {
        "Start": "",
        "End": ""
      },
      "LocationMile": "",
      "LayoutMapURL": ""
    },
    {
      "CCTVID": "C110011",
      "LinkID": "6161610600090D",
      "VideoStreamURL": "https://trafficvideo2.tainan.gov.tw/9f277849",
      "LocationType": 1,
      "PositionLon": 120.29341,
      "PositionLat": 23.30664,
      "SurveillanceType": -1,
      "SurveillanceDescription": "",
      "RoadID": "616161D",
      "RoadName": "復興路",
      "RoadClass": 6,
      "RoadDirection": "W",
      "RoadSection": {
        "Start": "",
        "End": ""
      },
      "LocationMile": "",
      "LayoutMapURL": ""
    },
    {
      "CCTVID": "C110012",
      "LinkID": "6156010400000D",
      "VideoStreamURL": "https://trafficvideo2.tainan.gov.tw/a3f5f3d2",
      "LocationType": 1,
      "PositionLon": 120.29354,
      "PositionLat": 23.3064,
      "SurveillanceType": -1,
      "SurveillanceDescription": "",
      "RoadID": "615601D",
      "RoadName": "長榮路三段",
      "RoadClass": 6,
      "RoadDirection": "S",
      "RoadSection": {
        "Start": "",
        "End": ""
      },
      "LocationMile": "",
      "LayoutMapURL": ""
    },
    {
      "CCTVID": "C154400",
      "LinkID": "0000801104000D",
      "VideoStreamURL": "https://trafficvideo2.tainan.gov.tw/9a2e174e",
      "LocationType": 1,
      "PositionLon": 120.282,
      "PositionLat": 23.0621,
      "SurveillanceType": -1,
      "SurveillanceDescription": "",
      "RoadID": "000080",
      "RoadName": "國道8號",
      "RoadClass": 0,
      "RoadDirection": "W",
      "RoadSection": {
        "Start": "",
        "End": ""
      },
      "LocationMile": "台1_322K+500",
      "LayoutMapURL": ""
    },
    {
      "CCTVID": "C156060",
      "LinkID": "6142800600040D",
      "VideoStreamURL": "https://trafficvideo2.tainan.gov.tw/50794012",
      "LocationType": 1,
      "PositionLon": 120.24766,
      "PositionLat": 22.97268,
      "SurveillanceType": 1,
      "SurveillanceDescription": "",
      "RoadID": "614280D",
      "RoadName": "中山路",
      "RoadClass": 6,
      "RoadDirection": "W",
      "RoadSection": {
        "Start": "",
        "End": ""
      },
      "LocationMile": "",
      "LayoutMapURL": ""
    },
    {
      "CCTVID": "C303400",
      "LinkID": "6152030500000D",
      "VideoStreamURL": "https://trafficvideo.tainan.gov.tw/d46fb9da",
      "LocationType": 1,
      "PositionLon": 120.267,
      "PositionLat": 23.315,
      "SurveillanceType": -1,
      "SurveillanceDescription": "",
      "RoadID": "615203D",
      "RoadName": "行昌路",
      "RoadClass": 6,
      "RoadDirection": "SW",
      "RoadSection": {
        "Start": "",
        "End": ""
      },
      "LocationMile": "",
      "LayoutMapURL": ""
    },
    {
      "CCTVID": "C980310",
      "LinkID": "6164550100010D",
      "VideoStreamURL": "https://trafficvideo2.tainan.gov.tw/192168234003",
      "LocationType": 1,
      "PositionLon": 120.16045,
      "PositionLat": 22.9976,
      "SurveillanceType": 1,
      "SurveillanceDescription": "",
      "RoadID": "616455D",
      "RoadName": "運河路",
      "RoadClass": 6,
      "RoadDirection": "NE",
      "RoadSection": {
        "Start": "",
        "End": ""
      },
      "LocationMile": "",
      "LayoutMapURL": ""
    },
    {
      "CCTVID": "C980750",
      "LinkID": "3000100132982D",
      "VideoStreamURL": "https://trafficvideo2.tainan.gov.tw/03acfaeb",
      "LocationType": 1,
      "PositionLon": 120.21895,
      "PositionLat": 23.02426,
      "SurveillanceType": -1,
      "SurveillanceDescription": "",
      "RoadID": "300010",
      "RoadName": "台1線",
      "RoadClass": 3,
      "RoadDirection": "N",
      "RoadSection": {
        "Start": "",
        "End": ""
      },
      "LocationMile": "",
      "LayoutMapURL": ""
    },
    {
      "CCTVID": "C981340",
      "LinkID": "6161760400000D",
      "VideoStreamURL": "https://trafficvideo2.tainan.gov.tw/192168234002",
      "LocationType": 1,
      "PositionLon": 120.15813,
      "PositionLat": 22.99936,
      "SurveillanceType": 1,
      "SurveillanceDescription": "",
      "RoadID": "616176D",
      "RoadName": "湖內一街",
      "RoadClass": 6,
      "RoadDirection": "S",
      "RoadSection": {
        "Start": "",
        "End": ""
      },
      "LocationMile": "",
      "LayoutMapURL": ""
    },
    {
      "CCTVID": "300010011853",
      "VideoStreamURL": "https://cctv-ss06.thb.gov.tw:443/T1-280K+145",
      "PositionLon": 120.36924,
      "PositionLat": 23.38006,
      "SurveillanceDescription": "台南市後壁區嘉民里縱貫公路",
      "RoadName": "台1線",
      "CityName": "臺南市",
      "TownName": "後壁區",
      "City": "Tainan"
    },
    {
      "CCTVID": "300010002587",
      "VideoStreamURL": "https://cctv-ss06.thb.gov.tw:443/T1-290K+170",
      "PositionLon": 120.32633,
      "PositionLat": 23.30992,
      "SurveillanceDescription": "東山路19巷11號",
      "RoadName": "台1線",
      "CityName": "臺南市",
      "TownName": "新營區",
      "City": "Tainan"
    },
    {
      "CCTVID": "300010012467",
      "VideoStreamURL": "https://cctv-ss06.thb.gov.tw:443/T1-309K+120",
      "PositionLon": 120.34114,
      "PositionLat": 23.16181,
      "SurveillanceDescription": "台南市官田區渡頭里三塊厝67號",
      "RoadName": "台1線",
      "CityName": "臺南市",
      "TownName": "官田區",
      "City": "Tainan"
    },
    {
      "CCTVID": "300010002359",
      "VideoStreamURL": "https://cctv-ss06.thb.gov.tw:443/T1-313K+400",
      "PositionLon": 120.31883,
      "PositionLat": 23.1275,
      "SurveillanceDescription": "重點路段109-車流監看 善化啤酒廠",
      "RoadName": "台1線",
      "CityName": "臺南市",
      "TownName": "善化區",
      "City": "Tainan"
    },
    {
      "CCTVID": "300010012549",
      "VideoStreamURL": "https://cctv-ss06.thb.gov.tw:443/T1-313K+950",
      "PositionLon": 120.31871,
      "PositionLat": 23.12531,
      "SurveillanceDescription": "台南市善化區小新里小新營351號前",
      "RoadName": "台1線",
      "CityName": "臺南市",
      "TownName": "善化區",
      "City": "Tainan"
    },
    {
      "CCTVID": "300010003081",
      "VideoStreamURL": "https://cctv-ss06.thb.gov.tw:443/T1-321K+710(S)",
      "PositionLon": 120.28867,
      "PositionLat": 23.06608,
      "SurveillanceDescription": "新市區中山路中央分隔島",
      "RoadName": "台1線",
      "CityName": "臺南市",
      "TownName": "新市區",
      "City": "Tainan"
    },
    {
      "CCTVID": "300010012820",
      "VideoStreamURL": "https://cctv-ss06.thb.gov.tw:443/T1-322K+240",
      "PositionLon": 120.28059,
      "PositionLat": 23.06118,
      "SurveillanceDescription": "新市橋中山路與國道8號交叉口",
      "RoadName": "台1線",
      "CityName": "臺南市",
      "TownName": "新市區",
      "City": "Tainan"
    },
    {
      "CCTVID": "300010002914",
      "VideoStreamURL": "https://cctv-ss06.thb.gov.tw:443/T1-326K+170",
      "PositionLon": 120.25457,
      "PositionLat": 23.04213,
      "SurveillanceDescription": "永康市中正北路403之2號",
      "RoadName": "台1線",
      "CityName": "臺南市",
      "TownName": "永康區",
      "City": "Tainan"
    },
    {
      "CCTVID": "300010002492",
      "VideoStreamURL": "https://cctv-ss06.thb.gov.tw:443/T1-326K+810",
      "PositionLon": 120.248065,
      "PositionLat": 23.041873,
      "SurveillanceDescription": "台南市永康區中正北路339之1號中央分隔島",
      "RoadName": "台1線",
      "CityName": "臺南市",
      "TownName": "永康區",
      "City": "Tainan"
    },
    {
      "CCTVID": "300010012415",
      "VideoStreamURL": "https://cctv-ss06.thb.gov.tw:443/T1-328K+090",
      "PositionLon": 120.2363,
      "PositionLat": 23.04048,
      "SurveillanceDescription": "永康市中正南路803號",
      "RoadName": "台1線",
      "CityName": "臺南市",
      "TownName": "永康區",
      "City": "Tainan"
    },
    {
      "CCTVID": "300010002910",
      "VideoStreamURL": "https://cctv-ss06.thb.gov.tw:443/T1-330K+550",
      "PositionLon": 120.21944,
      "PositionLat": 23.02478,
      "SurveillanceDescription": "永康市中正南路205號",
      "RoadName": "台1線",
      "CityName": "臺南市",
      "TownName": "永康區",
      "City": "Tainan"
    },
    {
      "CCTVID": "300010013076",
      "VideoStreamURL": "https://cctv-ss06.thb.gov.tw:443/T1-330K+940",
      "PositionLon": 120.21993,
      "PositionLat": 23.02261,
      "SurveillanceDescription": "永康市南台街154巷",
      "RoadName": "台1線",
      "CityName": "臺南市",
      "TownName": "永康區",
      "City": "Tainan"
    },
    {
      "CCTVID": "300010012855",
      "VideoStreamURL": "https://cctv-ss06.thb.gov.tw:443/T1-332K+600",
      "PositionLon": 120.23135,
      "PositionLat": 23.01268,
      "SurveillanceDescription": "永康市中華路538號",
      "RoadName": "台1線",
      "CityName": "臺南市",
      "TownName": "永康區",
      "City": "Tainan"
    },
    {
      "CCTVID": "300010003040",
      "VideoStreamURL": "https://cctv-ss07.thb.gov.tw:443/T1-333K+900",
      "PositionLon": 120.23504,
      "PositionLat": 23.00196,
      "SurveillanceDescription": "永康市中華路107號",
      "RoadName": "台1線",
      "CityName": "臺南市",
      "TownName": "永康區",
      "City": "Tainan"
    },
    {
      "CCTVID": "300010013041",
      "VideoStreamURL": "https://cctv-ss06.thb.gov.tw:443/T1-342K+590(S)",
      "PositionLon": 120.22102,
      "PositionLat": 22.93334,
      "SurveillanceDescription": "台南都會公園旁",
      "RoadName": "台1線",
      "CityName": "臺南市",
      "TownName": "仁德區",
      "City": "Tainan"
    },
    {
      "CCTVID": "300010003121",
      "VideoStreamURL": "https://cctv-ss06.thb.gov.tw:443/T1-342K+603",
      "PositionLon": 120.22092,
      "PositionLat": 22.93317,
      "SurveillanceDescription": "台南市仁德區二仁路二段",
      "RoadName": "台1線",
      "CityName": "臺南市",
      "TownName": "仁德區",
      "City": "Tainan"
    },
    {
      "CCTVID": "300010002534",
      "VideoStreamURL": "https://cctv-ss06.thb.gov.tw:443/T1-343K+191",
      "PositionLon": 120.22119,
      "PositionLat": 22.92803,
      "SurveillanceDescription": "台南市仁德區二行里",
      "RoadName": "台1線",
      "CityName": "臺南市",
      "TownName": "仁德區",
      "City": "Tainan"
    },
    {
      "CCTVID": "300010013035",
      "VideoStreamURL": "https://cctv-ss06.thb.gov.tw:443/T1-343K+900(N)",
      "PositionLon": 120.22435,
      "PositionLat": 22.92218,
      "SurveillanceDescription": "台南市仁德區二仁路一段120號",
      "RoadName": "台1線",
      "CityName": "臺南市",
      "TownName": "仁德區",
      "City": "Tainan"
    },
    {
      "CCTVID": "300030013191",
      "VideoStreamURL": "https://cctv-ss06.thb.gov.tw:443/T3-365K+550",
      "PositionLon": 120.49034,
      "PositionLat": 23.18536,
      "SurveillanceDescription": "台南市楠西區密枝里內山公路",
      "RoadName": "台3線",
      "CityName": "臺南市",
      "TownName": "楠西區",
      "City": "Tainan"
    },
    {
      "CCTVID": "300030003116",
      "VideoStreamURL": "https://cctv-ss06.thb.gov.tw:443/T3-378K+900",
      "PositionLon": 120.48846,
      "PositionLat": 23.08171,
      "SurveillanceDescription": "南化鄉北寮村",
      "RoadName": "台3線",
      "CityName": "臺南市",
      "TownName": "南化區",
      "City": "Tainan"
    },
    {
      "CCTVID": "300030002937",
      "VideoStreamURL": "https://cctv-ss06.thb.gov.tw:443/T3-379K+377",
      "PositionLon": 120.48775,
      "PositionLat": 23.07789,
      "SurveillanceDescription": "重點路段109-車流監看 北寮橋",
      "RoadName": "台3線",
      "CityName": "臺南市",
      "TownName": "南化區",
      "City": "Tainan"
    },
    {
      "CCTVID": "300030013833",
      "VideoStreamURL": "https://cctv-ss06.thb.gov.tw:443/T3-389K+000",
      "PositionLon": 120.46852,
      "PositionLat": 23.0053,
      "SurveillanceDescription": "重點路段109-車流監看 茄苳公廟旁",
      "RoadName": "台3線",
      "CityName": "臺南市",
      "TownName": "南化區",
      "City": "Tainan"
    },
    {
      "CCTVID": "300170010908",
      "VideoStreamURL": "https://cctv-ss06.thb.gov.tw:443/T17-139K+500",
      "PositionLon": 120.14628,
      "PositionLat": 23.296,
      "SurveillanceDescription": "台南市北門區鯤江里西濱公路",
      "RoadName": "台17線",
      "CityName": "臺南市",
      "TownName": "北門區",
      "City": "Tainan"
    },
    {
      "CCTVID": "300170001328",
      "VideoStreamURL": "https://cctv-ss06.thb.gov.tw:443/T17-139K+630",
      "PositionLon": 120.14624,
      "PositionLat": 23.29467,
      "SurveillanceDescription": "台南市北門區中央分隔島 五王大橋",
      "RoadName": "台17線",
      "CityName": "臺南市",
      "TownName": "北門區",
      "City": "Tainan"
    },
    {
      "CCTVID": "300170001162",
      "VideoStreamURL": "https://cctv-ss06.thb.gov.tw:443/T17-140K+330",
      "PositionLon": 120.14202,
      "PositionLat": 23.28976,
      "SurveillanceDescription": "台南市北門區 五王大橋南下橋尾",
      "RoadName": "台17線",
      "CityName": "臺南市",
      "TownName": "北門區",
      "City": "Tainan"
    },
    {
      "CCTVID": "300170001119",
      "VideoStreamURL": "https://cctv-ss06.thb.gov.tw:443/T17-141K+250",
      "PositionLon": 120.13642,
      "PositionLat": 23.28402,
      "SurveillanceDescription": "7-11南鯤鯓門市南邊85公尺",
      "RoadName": "台17線",
      "CityName": "臺南市",
      "TownName": "北門區",
      "City": "Tainan"
    },
    {
      "CCTVID": "300170001061",
      "VideoStreamURL": "https://cctv-ss06.thb.gov.tw:443/T17-142K+400",
      "PositionLon": 120.12883,
      "PositionLat": 23.27719,
      "SurveillanceDescription": "台南市北門區永隆里西濱公路",
      "RoadName": "台17線",
      "CityName": "臺南市",
      "TownName": "北門區",
      "City": "Tainan"
    },
    {
      "CCTVID": "300170010872",
      "VideoStreamURL": "https://cctv-ss06.thb.gov.tw:443/T17-159K+830(N)",
      "PositionLon": 120.13187,
      "PositionLat": 23.11799,
      "SurveillanceDescription": "台南市七股區中央分隔島",
      "RoadName": "台17線",
      "CityName": "臺南市",
      "TownName": "七股區",
      "City": "Tainan"
    },
    {
      "CCTVID": "300170010743",
      "VideoStreamURL": "https://cctv-ss06.thb.gov.tw:443/T17-162K+900",
      "PositionLon": 120.13169,
      "PositionLat": 23.09489,
      "SurveillanceDescription": "國姓橋北端(北向)",
      "RoadName": "台17線",
      "CityName": "臺南市",
      "TownName": "七股區",
      "City": "Tainan"
    },
    {
      "CCTVID": "300170001373",
      "VideoStreamURL": "https://cctv-ss06.thb.gov.tw:443/T17-163K+000",
      "PositionLon": 120.13166,
      "PositionLat": 23.09432,
      "SurveillanceDescription": "台17線國姓橋北端中央分隔島",
      "RoadName": "台17線",
      "CityName": "臺南市",
      "TownName": "七股區",
      "City": "Tainan"
    },
    {
      "CCTVID": "300170001193",
      "VideoStreamURL": "https://cctv-ss06.thb.gov.tw:443/T17-164K+435",
      "PositionLon": 120.13558,
      "PositionLat": 23.08166,
      "SurveillanceDescription": "安南區安明路四段近國姓橋",
      "RoadName": "台17線",
      "CityName": "臺南市",
      "TownName": "安南區",
      "City": "Tainan"
    },
    {
      "CCTVID": "300170011559",
      "VideoStreamURL": "https://cctv-ss06.thb.gov.tw:443/T17-166K+300",
      "PositionLon": 120.134,
      "PositionLat": 23.0607,
      "SurveillanceDescription": "T-17線166K.3 土城(安中路六段南側)安明路中央分隔島上",
      "RoadName": "台17線",
      "CityName": "臺南市",
      "TownName": "安南區",
      "City": "Tainan"
    },
    {
      "CCTVID": "300170011098",
      "VideoStreamURL": "https://cctv-ss06.thb.gov.tw:443/T17-182K+720(S)",
      "PositionLon": 120.17584,
      "PositionLat": 22.9394,
      "SurveillanceDescription": "台南市南區省躬橫街50號",
      "RoadName": "台17線",
      "CityName": "臺南市",
      "TownName": "南區",
      "City": "Tainan"
    },
    {
      "CCTVID": "300170011618",
      "VideoStreamURL": "https://cctv-ss06.thb.gov.tw:443/T17-182K+950",
      "PositionLon": 120.1762,
      "PositionLat": 22.9375,
      "SurveillanceDescription": "T-17線182K.95 灣裡(喜樹路340巷南側)濱南路中央分隔島上",
      "RoadName": "台17線",
      "CityName": "臺南市",
      "TownName": "南區",
      "City": "Tainan"
    },
    {
      "CCTVID": "300170011370",
      "VideoStreamURL": "https://cctv-ss06.thb.gov.tw:443/T17-183K+500",
      "PositionLon": 120.17668,
      "PositionLat": 22.93207,
      "SurveillanceDescription": "台南黃金海岸遊客中心濱南路600號",
      "RoadName": "台17線",
      "CityName": "臺南市",
      "TownName": "南區",
      "City": "Tainan"
    },
    {
      "CCTVID": "300190001034",
      "VideoStreamURL": "https://cctv-ss06.thb.gov.tw:443/T19-111K+100",
      "PositionLon": 120.205,
      "PositionLat": 23.25834,
      "SurveillanceDescription": "台南市學甲區宅子港6之3 南下路側",
      "RoadName": "台19線",
      "CityName": "臺南市",
      "TownName": "學甲區",
      "City": "Tainan"
    },
    {
      "CCTVID": "300190000924",
      "VideoStreamURL": "https://cctv-ss06.thb.gov.tw:443/T19-122K+080",
      "PositionLon": 120.1793,
      "PositionLat": 23.1719,
      "SurveillanceDescription": "佳里鎮延平路602號",
      "RoadName": "台19線",
      "CityName": "臺南市",
      "TownName": "佳里區",
      "City": "Tainan"
    },
    {
      "CCTVID": "300190001029",
      "VideoStreamURL": "https://cctv-ss06.thb.gov.tw:443/T19-129K+500",
      "PositionLon": 120.20348,
      "PositionLat": 23.11197,
      "SurveillanceDescription": "西港區西港大橋北端槽化島內",
      "RoadName": "台19線",
      "CityName": "臺南市",
      "TownName": "西港區",
      "City": "Tainan"
    },
    {
      "CCTVID": "300190001114",
      "VideoStreamURL": "https://cctv-ss06.thb.gov.tw:443/T19-132K+300",
      "PositionLon": 120.21034,
      "PositionLat": 23.08731,
      "SurveillanceDescription": "132K+300(順樁)(南向)",
      "RoadName": "台19線",
      "CityName": "臺南市",
      "TownName": "安定區",
      "City": "Tainan"
    },
    {
      "CCTVID": "300190000615",
      "VideoStreamURL": "https://cctv-ss06.thb.gov.tw:443/T19-137K+900",
      "PositionLon": 120.21557,
      "PositionLat": 23.04096,
      "SurveillanceDescription": "台南市安定區安和路四段",
      "RoadName": "台19線",
      "CityName": "臺南市",
      "TownName": "安南區",
      "City": "Tainan"
    },
    {
      "CCTVID": "300191010025",
      "VideoStreamURL": "https://cctv-ss06.thb.gov.tw:443/T19A-9K+450",
      "PositionLon": 120.27326,
      "PositionLat": 23.23679,
      "SurveillanceDescription": "台南市下營區中興南路158號 南下路側",
      "RoadName": " 台19甲線",
      "CityName": "臺南市",
      "TownName": "下營區",
      "City": "Tainan"
    },
    {
      "CCTVID": "300190999735",
      "VideoStreamURL": "https://cctv-ss06.thb.gov.tw:443/T19A-14K+050",
      "PositionLon": 120.26567,
      "PositionLat": 23.19786,
      "SurveillanceDescription": "台南市下營區與台84路口北上路側",
      "RoadName": " 台19甲線",
      "CityName": "臺南市",
      "TownName": "麻豆區",
      "City": "Tainan"
    },
    {
      "CCTVID": "300191009250",
      "VideoStreamURL": "https://cctv-ss06.thb.gov.tw:443/T19A-17K+255",
      "PositionLon": 120.25418,
      "PositionLat": 23.17668,
      "SurveillanceDescription": "台南市麻豆區民權路",
      "RoadName": " 台19甲線",
      "CityName": "臺南市",
      "TownName": "麻豆區",
      "City": "Tainan"
    },
    {
      "CCTVID": "300190999514",
      "VideoStreamURL": "https://cctv-ss06.thb.gov.tw:443/T19A-19K+445",
      "PositionLon": 120.27043,
      "PositionLat": 23.16445,
      "SurveillanceDescription": "台南市善化區溪底寮67號",
      "RoadName": " 台19甲線",
      "CityName": "臺南市",
      "TownName": "善化區",
      "City": "Tainan"
    },
    {
      "CCTVID": "300190999537",
      "VideoStreamURL": "https://cctv-ss06.thb.gov.tw:443/T19A-32K+800S",
      "PositionLon": 120.29981,
      "PositionLat": 23.05364,
      "SurveillanceDescription": "易淹水地區監看 東新加油站旁",
      "RoadName": " 台19甲線",
      "CityName": "臺南市",
      "TownName": "新化區",
      "City": "Tainan"
    },
    {
      "CCTVID": "300191010120",
      "VideoStreamURL": "https://cctv-ss06.thb.gov.tw:443/T19A-33K+940",
      "PositionLon": 120.30016,
      "PositionLat": 23.0531,
      "SurveillanceDescription": "台南市新化區中正路990號",
      "RoadName": " 台19甲線",
      "CityName": "臺南市",
      "TownName": "新化區",
      "City": "Tainan"
    },
    {
      "CCTVID": "300191000071",
      "VideoStreamURL": "https://cctv-ss06.thb.gov.tw:443/T19A-35K+900",
      "PositionLon": 120.31706,
      "PositionLat": 23.05018,
      "SurveillanceDescription": "新化外環109-車流監看",
      "RoadName": " 台19甲線",
      "CityName": "臺南市",
      "TownName": "新化區",
      "City": "Tainan"
    },
    {
      "CCTVID": "300191010147",
      "VideoStreamURL": "https://cctv-ss06.thb.gov.tw:443/T19A-45K+150",
      "PositionLon": 120.31619,
      "PositionLat": 22.97697,
      "SurveillanceDescription": "台南市關廟區",
      "RoadName": " 台19甲線",
      "CityName": "臺南市",
      "TownName": "關廟區",
      "City": "Tainan"
    },
    {
      "CCTVID": "300191000007",
      "VideoStreamURL": "https://cctv-ss06.thb.gov.tw:443/T19A-45K+500",
      "PositionLon": 120.31968,
      "PositionLat": 22.97458,
      "SurveillanceDescription": "台南市關廟區南雄路二段930號",
      "RoadName": " 台19甲線",
      "CityName": "臺南市",
      "TownName": "關廟區",
      "City": "Tainan"
    },
    {
      "CCTVID": "300191000251",
      "VideoStreamURL": "https://cctv-ss06.thb.gov.tw:443/T19A-54K+992",
      "PositionLon": 120.3525,
      "PositionLat": 22.90396,
      "SurveillanceDescription": "台南市關廟區南雄南路568號",
      "RoadName": " 台19甲線",
      "CityName": "臺南市",
      "TownName": "關廟區",
      "City": "Tainan"
    },
    {
      "CCTVID": "615699999840",
      "VideoStreamURL": "https://cctv-ss06.thb.gov.tw:443/T19A-57K+212",
      "PositionLon": 120.33845,
      "PositionLat": 22.89049,
      "SurveillanceDescription": "57K+212(順樁)(南向)",
      "RoadName": "南雄南路",
      "CityName": "臺南市",
      "TownName": "關廟區",
      "City": "Tainan"
    },
    {
      "CCTVID": "300199999777",
      "VideoStreamURL": "https://cctv-ss06.thb.gov.tw:443/T20-3K+530",
      "PositionLon": 120.22949,
      "PositionLat": 23.01296,
      "SurveillanceDescription": "台南市永康區中山南路151號 ",
      "RoadName": "台20線",
      "CityName": "臺南市",
      "TownName": "永康區",
      "City": "Tainan"
    },
    {
      "CCTVID": "300199999935",
      "VideoStreamURL": "https://cctv-ss06.thb.gov.tw:443/T20-3K+980",
      "PositionLon": 120.23295,
      "PositionLat": 23.01428,
      "SurveillanceDescription": "永康市中山南路208號",
      "RoadName": "台20線",
      "CityName": "臺南市",
      "TownName": "永康區",
      "City": "Tainan"
    },
    {
      "CCTVID": "300199999161",
      "VideoStreamURL": "https://cctv-ss06.thb.gov.tw:443/T20-6K+080",
      "PositionLon": 120.25148,
      "PositionLat": 23.02314,
      "SurveillanceDescription": "重點路段109-車流監看 永康中華電信營業所旁",
      "RoadName": "台20線",
      "CityName": "臺南市",
      "TownName": "永康區",
      "City": "Tainan"
    },
    {
      "CCTVID": "300199999488",
      "VideoStreamURL": "https://cctv-ss06.thb.gov.tw:443/T20-9K+600",
      "PositionLon": 120.28343,
      "PositionLat": 23.03276,
      "SurveillanceDescription": "台南市永康區中山北路旁 ",
      "RoadName": "台20線",
      "CityName": "臺南市",
      "TownName": "永康區",
      "City": "Tainan"
    },
    {
      "CCTVID": "300200009753",
      "VideoStreamURL": "https://cctv-ss06.thb.gov.tw:443/T20-13K+580",
      "PositionLon": 120.31705,
      "PositionLat": 23.04633,
      "SurveillanceDescription": "13K+580(順樁)(東向)",
      "RoadName": "台20線",
      "CityName": "臺南市",
      "TownName": "新化區",
      "City": "Tainan"
    },
    {
      "CCTVID": "300200009403",
      "VideoStreamURL": "https://cctv-ss06.thb.gov.tw:443/T20-14K+450",
      "PositionLon": 120.32247,
      "PositionLat": 23.0524,
      "SurveillanceDescription": "台南市新化區南橫公路",
      "RoadName": "台20線",
      "CityName": "臺南市",
      "TownName": "新化區",
      "City": "Tainan"
    },
    {
      "CCTVID": "300200010024",
      "VideoStreamURL": "https://cctv-ss06.thb.gov.tw:443/T20-16K+910",
      "PositionLon": 120.34101,
      "PositionLat": 23.06596,
      "SurveillanceDescription": "台南市新化區那拔林1號對面",
      "RoadName": "台20線",
      "CityName": "臺南市",
      "TownName": "新化區",
      "City": "Tainan"
    },
    {
      "CCTVID": "300199999454",
      "VideoStreamURL": "https://cctv-ss06.thb.gov.tw:443/T20-17K+850",
      "PositionLon": 120.34938,
      "PositionLat": 23.06775,
      "SurveillanceDescription": "台南市新化區南橫公路",
      "RoadName": "台20線",
      "CityName": "臺南市",
      "TownName": "新化區",
      "City": "Tainan"
    },
    {
      "CCTVID": "300200009746",
      "VideoStreamURL": "https://cctv-ss06.thb.gov.tw:443/T20-18K+550",
      "PositionLon": 120.35598,
      "PositionLat": 23.07019,
      "SurveillanceDescription": "千鳥營區 ",
      "RoadName": "台20線",
      "CityName": "臺南市",
      "TownName": "新化區",
      "City": "Tainan"
    },
    {
      "CCTVID": "300200009658",
      "VideoStreamURL": "https://cctv-ss06.thb.gov.tw:443/T20-20K+230",
      "PositionLon": 120.36891,
      "PositionLat": 23.07944,
      "SurveillanceDescription": "台南市山上區隙子口2之22號(西行路側)",
      "RoadName": "台20線",
      "CityName": "臺南市",
      "TownName": "山上區",
      "City": "Tainan"
    },
    {
      "CCTVID": "300199999719",
      "VideoStreamURL": "https://cctv-ss06.thb.gov.tw:443/T20-23K+550",
      "PositionLon": 120.39011,
      "PositionLat": 23.06181,
      "SurveillanceDescription": "台南市左鎮區榮和里南橫公路",
      "RoadName": "台20線",
      "CityName": "臺南市",
      "TownName": "左鎮區",
      "City": "Tainan"
    },
    {
      "CCTVID": "300199999586",
      "VideoStreamURL": "https://cctv-ss06.thb.gov.tw:443/T20-35K+990",
      "PositionLon": 120.46104,
      "PositionLat": 23.12004,
      "SurveillanceDescription": "玉井工商",
      "RoadName": "台20線",
      "CityName": "臺南市",
      "TownName": "玉井區",
      "City": "Tainan"
    },
    {
      "CCTVID": "300200009880",
      "VideoStreamURL": "https://cctv-ss06.thb.gov.tw:443/T20-36K+410",
      "PositionLon": 120.4652,
      "PositionLat": 23.12065,
      "SurveillanceDescription": "玉井鄉中山路228號",
      "RoadName": "台20線",
      "CityName": "臺南市",
      "TownName": "玉井區",
      "City": "Tainan"
    },
    {
      "CCTVID": "300199999585",
      "VideoStreamURL": "https://cctv-ss06.thb.gov.tw:443/T20-42K+904",
      "PositionLon": 120.49835,
      "PositionLat": 23.0747,
      "SurveillanceDescription": "台南市南化區西向路側 ",
      "RoadName": "台20線",
      "CityName": "臺南市",
      "TownName": "南化區",
      "City": "Tainan"
    },
    {
      "CCTVID": "300200000087",
      "VideoStreamURL": "https://cctv-ss06.thb.gov.tw:443/T20-48K+550",
      "PositionLon": 120.53017,
      "PositionLat": 23.07711,
      "SurveillanceDescription": "臺南市南化隧道東洞口外東向路側",
      "RoadName": "台20線",
      "CityName": "臺南市",
      "TownName": "南化區",
      "City": "Tainan"
    },
    {
      "CCTVID": "300200000109",
      "VideoStreamURL": "https://cctv-ss06.thb.gov.tw:443/T20-51K+935",
      "PositionLon": 120.5517,
      "PositionLat": 23.07064,
      "SurveillanceDescription": "台南市南化區西行路側",
      "RoadName": "台20線",
      "CityName": "臺南市",
      "TownName": "南化區",
      "City": "Tainan"
    },
    {
      "CCTVID": "300200000325",
      "VideoStreamURL": "https://cctv-ss06.thb.gov.tw:443/T20-52K+090",
      "PositionLon": 120.55239,
      "PositionLat": 23.06939,
      "SurveillanceDescription": "台南市南化區東行路側",
      "RoadName": "台20線",
      "CityName": "臺南市",
      "TownName": "南化區",
      "City": "Tainan"
    },
    {
      "CCTVID": "300389999969",
      "VideoStreamURL": "https://cctv-ss06.thb.gov.tw:443/T39-2K+600(S)",
      "PositionLon": 120.28714,
      "PositionLat": 23.01148,
      "SurveillanceDescription": "重點路段109-車流監看 高鐵橋下(西埔二街)",
      "RoadName": "台39線",
      "CityName": "臺南市",
      "TownName": "歸仁區",
      "City": "Tainan"
    },
    {
      "CCTVID": "300390009930",
      "VideoStreamURL": "https://cctv-ss06.thb.gov.tw:443/T39-2K+570(N)",
      "PositionLon": 120.2876,
      "PositionLat": 23.0117,
      "SurveillanceDescription": "重點路段109-車流監看 高鐵橋下(西埔二街)",
      "RoadName": "台39線",
      "CityName": "臺南市",
      "TownName": "歸仁區",
      "City": "Tainan"
    },
    {
      "CCTVID": "300389999455",
      "VideoStreamURL": "https://cctv-ss06.thb.gov.tw:443/T39-10K+700(S)",
      "PositionLon": 120.27771,
      "PositionLat": 22.94147,
      "SurveillanceDescription": "重點路段109-車流監看 高鐵橋下台南路段",
      "RoadName": "台39線",
      "CityName": "臺南市",
      "TownName": "歸仁區",
      "City": "Tainan"
    },
    {
      "CCTVID": "300390009962",
      "VideoStreamURL": "https://cctv-ss06.thb.gov.tw:443/T39-10K+750(N)",
      "PositionLon": 120.27818,
      "PositionLat": 22.94148,
      "SurveillanceDescription": "重點路段109-車流監看 高鐵橋下台南路段(照到往新化路牌)",
      "RoadName": "台39線",
      "CityName": "臺南市",
      "TownName": "歸仁區",
      "City": "Tainan"
    },
    {
      "CCTVID": "100610002683",
      "VideoStreamURL": "https://cctv-ss06.thb.gov.tw:443/T61-280K+000",
      "PositionLon": 120.14928,
      "PositionLat": 23.30596,
      "SurveillanceDescription": "台南市北門區雙春里南下路側",
      "RoadName": "台61線",
      "CityName": "臺南市",
      "TownName": "北門區",
      "City": "Tainan"
    },
    {
      "CCTVID": "100610001854",
      "VideoStreamURL": "https://cctv-ss06.thb.gov.tw:443/T61-282K+644",
      "PositionLon": 120.13292,
      "PositionLat": 23.28802,
      "SurveillanceDescription": "282K.644 北門南出口標誌架(南向)",
      "RoadName": "台61線",
      "CityName": "臺南市",
      "TownName": "北門區",
      "City": "Tainan"
    },
    {
      "CCTVID": "100610012367",
      "VideoStreamURL": "https://cctv-ss06.thb.gov.tw:443/T61-283K+700",
      "PositionLon": 120.12702,
      "PositionLat": 23.2803,
      "SurveillanceDescription": "283K.7 北門(北向)",
      "RoadName": "台61線",
      "CityName": "臺南市",
      "TownName": "北門區",
      "City": "Tainan"
    },
    {
      "CCTVID": "100610012616",
      "VideoStreamURL": "https://cctv-ss06.thb.gov.tw:443/T61-284K+810",
      "PositionLon": 120.11916,
      "PositionLat": 23.27283,
      "SurveillanceDescription": "台南市七股區拱門架北上路側",
      "RoadName": "台61線",
      "CityName": "臺南市",
      "TownName": "北門區",
      "City": "Tainan"
    },
    {
      "CCTVID": "100610012515",
      "VideoStreamURL": "https://cctv-ss06.thb.gov.tw:443/T61-289K+200",
      "PositionLon": 120.10479,
      "PositionLat": 23.23676,
      "SurveillanceDescription": "289K.2 三寮灣(北向)",
      "RoadName": "台61線",
      "CityName": "臺南市",
      "TownName": "北門區",
      "City": "Tainan"
    },
    {
      "CCTVID": "100610012808",
      "VideoStreamURL": "https://cctv-ss06.thb.gov.tw:443/T61-292K+014",
      "PositionLon": 120.09858,
      "PositionLat": 23.21204,
      "SurveillanceDescription": "292K.014 將軍(北向)",
      "RoadName": "台61線",
      "CityName": "臺南市",
      "TownName": "將軍區",
      "City": "Tainan"
    },
    {
      "CCTVID": "100610002831",
      "VideoStreamURL": "https://cctv-ss06.thb.gov.tw:443/T61-297K+300",
      "PositionLon": 120.08947,
      "PositionLat": 23.16539,
      "SurveillanceDescription": "297K.3 七股南出口標誌架(南向)",
      "RoadName": "台61線",
      "CityName": "臺南市",
      "TownName": "七股區",
      "City": "Tainan"
    },
    {
      "CCTVID": "401731009723",
      "VideoStreamURL": "https://cctv-ss06.thb.gov.tw:443/T61-298K+580",
      "PositionLon": 120.08965,
      "PositionLat": 23.1539,
      "SurveillanceDescription": "298K.58 七股(北向)",
      "RoadName": "173甲",
      "CityName": "臺南市",
      "TownName": "七股區",
      "City": "Tainan"
    },
    {
      "CCTVID": "100610002514",
      "VideoStreamURL": "https://cctv-ss06.thb.gov.tw:443/T61-298K+720(S)",
      "PositionLon": 120.08945,
      "PositionLat": 23.15267,
      "SurveillanceDescription": "298K.72 七股(南向)",
      "RoadName": "台61線",
      "CityName": "臺南市",
      "TownName": "七股區",
      "City": "Tainan"
    },
    {
      "CCTVID": "100610012041",
      "VideoStreamURL": "https://cctv-ss06.thb.gov.tw:443/T61-299K+495",
      "PositionLon": 120.08956,
      "PositionLat": 23.14564,
      "SurveillanceDescription": "299K.495 七股北出口標誌架(北向)",
      "RoadName": "台61線",
      "CityName": "臺南市",
      "TownName": "七股區",
      "City": "Tainan"
    },
    {
      "CCTVID": "100859999955",
      "VideoStreamURL": "https://cctv-ss06.thb.gov.tw:443/T86-5K+663",
      "PositionLon": 120.22724,
      "PositionLat": 22.93321,
      "SurveillanceDescription": "T86-5K+663",
      "RoadName": "台86線",
      "CityName": "臺南市",
      "TownName": "仁德區",
      "City": "Tainan"
    },
    {
      "CCTVID": "100860009480",
      "VideoStreamURL": "https://cctv-ss06.thb.gov.tw:443/T86-6K+320",
      "PositionLon": 120.2327,
      "PositionLat": 22.93647,
      "SurveillanceDescription": "T86-6K+320",
      "RoadName": "台86線",
      "CityName": "臺南市",
      "TownName": "仁德區",
      "City": "Tainan"
    },
    {
      "CCTVID": "401729999429",
      "VideoStreamURL": "https://cctv-ss06.thb.gov.tw:443/T173-22K+320",
      "PositionLon": 120.08911,
      "PositionLat": 23.0902,
      "SurveillanceDescription": "西濱北上匝道口",
      "RoadName": "173",
      "CityName": "臺南市",
      "TownName": "七股區",
      "City": "Tainan"
    },
    {
      "CCTVID": "401760009093",
      "VideoStreamURL": "https://cctv-ss06.thb.gov.tw:443/T176-0K+500",
      "PositionLon": 120.09306,
      "PositionLat": 23.15243,
      "SurveillanceDescription": "西濱北上匝道口",
      "RoadName": "176",
      "CityName": "臺南市",
      "TownName": "七股區",
      "City": "Tainan"
    },
    {
      "CCTVID": "401731009175",
      "VideoStreamURL": "https://cctv-ss06.thb.gov.tw:443/T61-304K+180",
      "PositionLon": 120.08667,
      "PositionLat": 23.1034,
      "SurveillanceDescription": "十份(304k+200)全方向",
      "RoadName": "173甲",
      "CityName": "臺南市",
      "TownName": "七股區",
      "City": "Tainan"
    }
  ]
}